district,hurt,time,place,lat,lng
3101176201400120,伤人事故,2014-8-29 18:30:00,泗陈公路出佘北公路东约2米,31.114912941851,121.19009819539
3101182201400410,死亡事故,2014-8-12 22:55:00,嘉松中路出华隆路南约3000米,31.203728636498,121.22773630963
3101158201500130,死亡事故,2015-4-15 8:10:00,大川公路进周祝公路北约500米,31.072753125437,121.74181840003
3101121201400290,死亡事故,2014-11-26 11:50:00,苏召路立跃路北约200米,31.096269316572,121.54838226453
3101155201400390,死亡事故,2014-9-11 15:05:00,港城路出杨高北路西约300米,31.357712231187,121.5555400329
3101158201400290,死亡事故,2014-7-2 7:18:00,康新公路进新卫路南约40米,31.043728831207,121.64744700181
3101173201400080,死亡事故,2014-7-5 8:06:00,新绿街进新绿街新颖路西约150米,30.937711178951,121.07366747258
3101087201400020,伤人事故,2014-7-23 12:40:00,江场西路原平路东约5米,31.303404068589,121.43781703294
3101171201400100,财产损失事故,2014-7-19 10:35:00,辰花公路出光星路西约100米,31.075595019687,121.26178054966
3101087201400020,死亡事故,2014-7-7 20:17:00,天目中路大统路东约1米,31.25107318478,121.47441343797
3102303201400110,死亡事故,2014-9-25 16:15:00,协定公路协津公路西约500米,31.719182842276,121.41591222857
3101120201400170,死亡事故,2014-7-7 23:39:00,剑川路进莲花南路东约300米,31.024352390538,121.39926457394
3101153201400320,死亡事故,2014-7-21 17:22:00,御青路京浦路西约20米,31.164683720437,121.57804788054
3101170201400080,死亡事故,2014-7-7 17:25:00,塔闵公路出松卫北路西约1000米,31.035166099497,121.26878319953
3101127201400170,死亡事故,2014-7-17 18:05:00,沪闵路贵都路南约5米,31.083811544801,121.40916330239
3101128201400170,伤人事故,2014-7-16 22:23:00,春西路申旺路南约30米,31.090540118845,121.38923770131
3101177201400120,死亡事故,2014-8-23 22:58:00,昆港公路出新港路南约80米,31.04911167282,121.14213216568
3101151201400340,死亡事故,2014-8-3 11:55:00,汇成路园西路东约1米,31.038024472683,121.71659916992
3101172201400090,死亡事故,2014-7-11 15:33:00,滨湖路出新松江路南约100米,31.047123502082,121.21805648745
3101146201400140,死亡事故,2014-10-30 22:50:00,外钱公路进墨玉北路东约300米,31.361431259298,121.14730240077
3101151201400410,死亡事故,2014-9-18 19:25:00,东川公路上川路北约600米,31.283241387621,121.66716477721
3101124201400210,伤人事故,2014-9-3 12:16:00,春都路都庄路东约100米,31.0886692197,121.42281218955
3101173201400090,死亡事故,2014-7-9 19:34:00,嘉松南路沈砖公路东北约20米,31.080225967434,121.23766998575
3101129201400200,伤人事故,2014-8-24 20:07:00,三鲁公路立跃路北约400米,31.065041532741,121.53471142009
3101126201400180,伤人事故,2014-7-20 22:04:00,联跃路浦星公路东约0米,31.051346996107,121.51922460256
3101121201400160,死亡事故,2014-7-6 20:51:00,沪闵路莘建路南约300米,31.111517286016,121.38301056757
3101121201400190,伤人事故,2014-7-29 11:37:00,立跃路立民路北约0米,31.112839738953,121.56198809321
3101086201400020,死亡事故,2014-7-21 10:34:00,共和新路出彭江路北约100米,31.291094755628,121.46406473572
3101175201400100,伤人事故,2014-7-18 17:45:00,方泗公路进九干路南约200米,31.136157000972,121.28028966667
3101107201400040,死亡事故,2014-10-23 9:23:00,政立路淞沪路东北约1米,31.313693988145,121.51139960519
3101151201400350,死亡事故,2014-8-5 17:09:00,张杨北路航津路东约10米,31.337690362703,121.59505392852
3101154201400390,死亡事故,2014-9-11 19:57:00,张东路祖冲之路东约1米,31.225534899271,121.63921104944
3101126201400170,伤人事故,2014-7-6 21:58:00,漕宝路进龙茗路东约100米,31.165939946502,121.40316343724
3101152201400440,死亡事故,2014-10-4 7:15:00,东高路张杨北路西约5米,31.295736434998,121.59318476496
3103013201400000,伤人事故,2014-7-20 22:25:00,沪渝高速北侧中春路下匝道后约1000米,31.121332054514,121.36987807493
3101153201400290,死亡事故,2014-7-2 21:40:00,五洲大道北侧申江路上匝道,31.309714037745,121.60654252387
3101160201400060,死亡事故,2014-8-6 8:56:00,金展路林贤路南约200米,30.885945815636,121.32424509645
3101175201400080,伤人事故,2014-7-3 3:30:00,沪昆高速北侧36km约900米,31.249161710015,121.48789948569
3101184201400390,死亡事故,2014-8-2 21:38:00,崧泽大道出赵重公路东约1500米,31.203830925045,121.19157680985
3101057201400020,死亡事故,2014-7-14 15:28:00,北翟路出剑河路西约100米,31.229478221333,121.35205662515
3101173201400090,死亡事故,2014-7-12 19:40:00,玉树路进兴仓路北约80米,31.003973998226,121.21585621207
3101138201400130,伤人事故,2014-7-23 4:05:00,外环高速东侧85km约200米,31.249161710015,121.48789948569
3101136201400150,死亡事故,2014-8-29 18:32:00,恒高路进江杨南路东约30米,31.331147777233,121.47668604491
3101183201400380,死亡事故,2014-7-23 8:01:00,嘉松中路纪鹤公路西北约10米,31.255227002715,121.2106395813
3101120201400160,死亡事故,2014-7-4 10:50:00,老沪闵路进华泾路西约200米,31.125135569773,121.45455259933
3101180201400380,死亡事故,2014-7-26 0:57:00,新胜路进白石公路南约500米,31.26325941637,121.10836464327
3101049201400040,死亡事故,2014-7-16 10:07:00,龙吴路银都路西北约20米,31.110661407341,121.44251697635
3101177201400110,死亡事故,2014-8-3 20:15:00,申港路出华磊路南约500米,31.049313204319,121.33484808114
3101124201400230,伤人事故,2014-9-27 7:10:00,吴中路出环镇西路东约100米,31.180662725161,121.38468442155
3101130201400130,死亡事故,2014-7-31 17:35:00,泰和西路富长路东约500米,31.360013338926,121.42747770989
3101147201400100,死亡事故,2014-8-6 15:35:00,永盛路希望路东约1米,31.361524759857,121.25615848306
3101158201400290,死亡事故,2014-7-2 1:00:00,申江南路周祝公路(南)南约30米,31.087976882476,121.65317828978
3101152201400410,死亡事故,2014-9-21 22:32:00,高科中路伽利略路东约1米,31.19898097448,121.62266499586
3101148201400120,死亡事故,2014-8-30 6:40:00,宝钱公路沪宜公路北约1米,31.429180650846,121.21732566112
3101157201400420,死亡事故,2014-9-27 18:10:00,南团公路进宣黄公路南约300米,31.002490885793,121.76946215401
3101121201400180,死亡事故,2014-7-22 17:09:00,联友路周泾路东北约5米,31.247423527141,121.27194583499
3101097201400020,伤人事故,2014-7-21 15:15:00,周家嘴路公平路南约00米,31.262232415299,121.51027520966
3101134201400120,死亡事故,2014-7-8 9:29:00,其他路大华路301弄83号,31.276903253723,121.42172311539
3101171201400110,死亡事故,2014-8-12 9:55:00,同利路进盛龙路西约500米,31.114428743318,121.32007107767
3101168201400090,死亡事故,2014-10-14 17:54:00,卫六路进板桥西路南约100米,30.71767764778,121.30750079582
3101157201400420,死亡事故,2014-9-23 10:10:00,栏学路科农路东约1米,31.178794445608,121.67298910448
3101133201400130,死亡事故,2014-7-30 9:16:00,宝安公路进联杨路西约200米,31.38416979434,121.3446881206
3101146201400110,死亡事故,2014-8-21 12:45:00,金昌西路老翔黄路西约300米,31.295802103049,121.28460553058
3101174201400120,伤人事故,2014-8-10 21:00:00,九泾路进沧泾路北约200米,31.147217167335,121.29794169513
3101165201400080,死亡事故,2014-9-17 12:14:00,亭枫公路金石公路东约50米,30.894901926884,121.20347937313
3101123201400240,伤人事故,2014-9-29 21:50:00,银都路景洪路西约200米,31.110661407341,121.44251697635
3101156201400320,死亡事故,2014-7-21 3:46:00,川周公路秀浦路西约10米,31.165972591315,121.65212444177
3101142201400110,死亡事故,2014-8-19 19:35:00,曹安公路出淞阳南路西约300米,31.275308244118,121.24016873392
3101157201400290,死亡事故,2014-7-4 12:25:00,沪南公路康新公路东约5米,31.043728831207,121.64744700181
3101177201400080,死亡事故,2014-7-7 14:33:00,沪昆高速北侧47km约200米,31.249161710015,121.48789948569
3101146201400090,死亡事故,2014-7-9 8:43:00,新建一路澄浏公路南约30米,31.425494666166,121.29487098596
3101156201400300,死亡事故,2014-7-10 17:59:00,上丰路进金丰路南约1米,31.147616433245,121.38595034421
3101180201400360,死亡事故,2014-7-12 11:07:00,杜村公路出友爱路北约1000米,31.223142613168,121.11009430538
3101141201400110,死亡事故,2014-8-25 13:35:00,嘉罗公路迎园中路北约10米,31.389245720558,121.27315481677
3101106201400050,死亡事故,2014-11-17 6:30:00,营口路出佳木斯路北约150米,31.300086259562,121.54072008414
3101124201400180,伤人事故,2014-7-22 9:10:00,七莘路润虹路东北约0米,31.224837868868,121.33425004862
3101151201400310,死亡事故,2014-7-13 16:50:00,其他路航头镇海桥村,31.01485177971,121.61732267238
3101176201400100,死亡事故,2014-7-27 11:32:00,文翔路辰塔路西约5米,31.037639132012,121.18958983711
3101174201400130,伤人事故,2014-9-18 19:22:00,场东路出莘松路南约100米,31.098448706196,121.36736178735
3101181201400370,死亡事故,2014-7-17 10:08:00,沪青平公路进高泾路东约5米,31.163874554428,121.30684605148
3101151201400360,死亡事故,2014-8-14 17:15:00,巨峰路进申江路东约400米,31.28550624513,121.63227290958
3101174201400090,死亡事故,2014-7-7 3:55:00,中山中路出人民南路(东)东约3米,31.007653384176,121.23549088882
3102304201400080,死亡事故,2014-7-14 15:10:00,其他路庙镇合中村路,31.743195895881,121.36155752374
3101173201400080,死亡事故,2014-7-4 20:05:00,荣乐东路松东路东约10米,31.022526047762,121.26233344143
3101128201400190,伤人事故,2014-7-30 6:17:00,沪闵路新苗路北约5米,31.045943453532,121.41532888694
3101139201400140,死亡事故,2014-8-13 14:42:00,宝祁路南侧0km约319米,31.307365327012,121.34944035078
3101158201400300,死亡事故,2014-7-6 3:08:00,靖海路进人民东路南约50米,31.059298227641,121.77508773657
3101165201400080,死亡事故,2014-9-17 2:27:00,漕廊公路进沪杭公路西约50米,30.802022745122,121.40256715911
3101163201400080,死亡事故,2014-9-16 7:15:00,亭枫公路新顺路西约150米,30.89771338811,121.22822981083
3101153201400380,死亡事故,2014-8-28 8:25:00,下盐路军港公路东约1米,31.081430170796,121.85311673156
3101122201400170,死亡事故,2014-7-9 3:44:00,浦星公路出沈杜公路南约100米,31.083032867999,121.5599287431
3101176201400120,伤人事故,2014-8-20 4:18:00,莘砖公路同乐路北约3米,31.091616395368,121.27659665816
3101159201400300,死亡事故,2014-7-6 12:20:00,川南奉公路进东大公路北约1000米,30.99213179443,121.74446142594
3101075201400060,死亡事故,2014-7-26 2:40:00,古浪路进真南路东约100米,31.289763403086,121.38437461304
3101170201400080,死亡事故,2014-7-7 16:55:00,沪昆高速出沪方向新桥入口匝道,31.103920690859,121.21379898555
3101157201400290,死亡事故,2014-7-1 19:12:00,普庆路进德兴街东约1米,31.16099062434,121.7321538724
3101070201400090,死亡事故,2014-10-12 0:26:00,交通路进泾惠路西约150米,31.265115449441,121.44206016015
3101109201400030,死亡事故,2014-9-14 11:25:00,周家嘴路出许昌路西约20米,31.26869246914,121.52633487841
3101182201400440,死亡事故,2014-9-5 19:13:00,天辰路向阳河路西约5米,31.249161710015,121.48789948569
3101165201400090,死亡事故,2014-10-2 10:03:00,金石公路出亭枫公路南约300米,30.894901926884,121.20347937313
3101122201400190,伤人事故,2014-7-28 13:11:00,浦放路进鲁陈路西约1500米,31.058135683274,121.5235993459
3101156201400560,死亡事故,2014-12-12 18:09:00,川沙路储七路东约1米,31.210252137268,121.70186930324
3102213201400020,死亡事故,2014-10-1 10:35:00,杨高北一路出港华路南约100米,31.364531572429,121.59134244905
3101123201400190,死亡事故,2014-8-11 9:42:00,中春路顾戴路北约5米,31.141756841887,121.37882923659
3101170201400140,伤人事故,2014-9-22 22:52:00,泗凤公路新家园路东约1米,31.116747989293,121.25394294188
3101159201400310,死亡事故,2014-7-11 17:21:00,巨峰路进申江路东约10米,31.28550624513,121.63227290958
3101151201400370,死亡事故,2014-8-22 11:48:00,上丰路进达丰路北约100米,31.243332054281,121.6574534335
3101143201400120,死亡事故,2014-9-17 9:19:00,沪宜公路嘉安公路(西)南约1米,31.356180996405,121.21820274955
3101138201400170,死亡事故,2014-10-16 9:18:00,宝安公路东侧0km约2165米,31.339927524535,121.298841349
3101157201400320,死亡事故,2014-7-23 18:10:00,海霞路进川南奉公路东约80米,31.061623175504,121.77028927869
3101154201400340,死亡事故,2014-8-1 9:33:00,芦五公路妙香路东约5米,30.861672365395,121.80064522362
3101150201400390,死亡事故,2014-9-10 15:07:00,周祝公路进南六公路西约50米,31.117616396708,121.68118942377
3101152201400330,死亡事故,2014-7-25 21:50:00,上海绕城高速南侧上海绕城高速龙东大道南向东下匝道前约50米,31.236731458632,121.74469256085
3101126201400190,死亡事故,2014-8-3 14:50:00,江月路浦星公路北约0米,31.090776974862,121.52398254956
3101178201400110,死亡事故,2014-8-4 18:20:00,光星路茸平路南约5米,31.040375596107,121.25723833342
3101179201400090,死亡事故,2014-7-12 8:14:00,叶新公路进许村公路西约500米,30.962692029545,121.05928304209
3101163201400060,死亡事故,2014-8-26 10:18:00,亭枫公路兴豪路东约500米,30.884104915827,121.09571616123
3101125201400270,死亡事故,2014-10-29 17:20:00,金都路春西路西约10米,31.080577684785,121.3814147458
3102235201400010,死亡事故,2014-12-3 16:07:00,富特中路新灵路北约00米,31.322693963108,121.627442428
3103013201400010,伤人事故,2014-10-3 5:16:00,内环高架外侧NW0937约5米,31.11478735724,121.29334879021
3102301201400090,死亡事故,2014-8-15 19:30:00,港沿公路草港公路东约200米,31.600573939145,121.66808458636
3101140201400130,死亡事故,2014-9-22 3:00:00,京沪高速东侧1207.4km约1米,31.249161710015,121.48789948569
3101127201400200,伤人事故,2014-8-14 7:26:00,沪青平公路七莘路南约5米,31.144389964241,121.12689847887
3101122201400240,死亡事故,2014-10-4 12:40:00,虹梅南路出元江路北约150米,31.05715286282,121.41428137917
3101185201400480,死亡事故,2014-10-27 22:05:00,沈海高速东侧1282km约300米,31.249161710015,121.48789948569
3101138201400180,死亡事故,2014-10-28 7:48:00,宝杨路淞宝路路口,31.406843246996,121.5015936744
3102305201400090,死亡事故,2014-8-18 7:40:00,陈海公路出前竖公路北约10米,31.638556413061,121.47277015782
3101129201400280,伤人事故,2014-11-13 17:44:00,沪青平公路申昆路西北约10米,31.197646780631,121.33174135082
3101144201400100,死亡事故,2014-7-22 2:10:00,京沪高速东侧1218km约200米,31.249161710015,121.48789948569
3101152201400330,死亡事故,2014-7-28 10:25:00,拱极东路盐大路东约1米,31.062949690717,121.80773882513
3101182201400460,死亡事故,2014-10-6 9:55:00,崧泽大道外青松公路东约5米,31.181060549011,121.226133464
3103014201400010,伤人事故,2014-9-11 12:01:00,中环高架内侧ZN0906约0米,31.114777386686,121.29308405958
3101174201400120,伤人事故,2014-8-19 20:54:00,嘉松南路泗陈公路北约10米,31.080225967434,121.23766998575
3101178201400130,死亡事故,2014-9-14 3:18:00,松东路进环城路北约150米,31.022526047762,121.26233344143
3101121201400220,伤人事故,2014-9-22 21:00:00,陈行公路浦星公路北约0米,31.101384746455,121.51394110641
3101162201400080,死亡事故,2014-8-31 15:50:00,金廊公路朱吕公路南约3000米,30.838449350166,121.22819368906
3101124201400250,死亡事故,2014-10-18 21:20:00,沈杜公路浦星公路东约0米,31.083032867999,121.5599287431
3101171201400100,死亡事故,2014-7-19 20:10:00,香闵路进香车路南约20米,31.010952048358,121.30012624837
3101165201400090,死亡事故,2014-10-7 18:42:00,漕廊公路东贤路东约10米,30.80968788169,121.29661094265
3101188201400370,死亡事故,2014-7-19 23:15:00,久业路出北青公路北约100米,31.200716502592,121.11979077585
3101150201400310,死亡事故,2014-7-16 11:39:00,妙境路进青厦路南约30米,31.192077062679,121.69883241617
3101153201400370,死亡事故,2014-8-25 11:12:00,上川路华东路东北约15米,31.283241387621,121.66716477721
3101123201400190,死亡事故,2014-8-8 11:20:00,沪闵路北松公路南约50米,31.142218076929,121.41376719538
3101159201400460,死亡事故,2014-10-22 8:20:00,川周公路平川路南约20米,31.165972591315,121.65212444177
3101019201400020,死亡事故,2014-7-25 8:10:00,打浦路进斜土路北约100米,31.204247389913,121.47871907287
3101140201400120,死亡事故,2014-9-5 15:09:00,双丁路德富路西约2米,31.249161710015,121.48789948569
3101147201400120,死亡事故,2014-8-29 23:18:00,嘉行公路新建一路北约1米,31.425494666166,121.29487098596
3101209201400100,死亡事故,2014-8-21 22:14:00,奉炮公路东侧2km约200米,30.844040572137,121.52909134594
3101040201400050,伤人事故,2014-8-12 0:12:00,宛平南路出斜土路南约200米,31.191605657173,121.45704710929
3101201201400090,死亡事故,2014-7-13 6:50:00,新四平公路进川南奉公路北约500米,30.944611209672,121.72331194289
3101142201400150,死亡事故,2014-11-12 15:50:00,金沙江西路金园一路西约1米,31.247473008329,121.31228698734
3101156201400320,死亡事故,2014-7-21 7:35:00,川沙路出上川路南约20米,31.283241387621,121.66716477721
3101158201400370,死亡事故,2014-8-26 23:42:00,申江路出锦绣东路北约200米,31.241552299289,121.63177878945
3101140201400100,死亡事故,2014-8-4 22:30:00,沈海高速北侧1268km约500米,31.249161710015,121.48789948569
3101131201400160,死亡事故,2014-9-30 5:10:00,瑞丰路进丰翔路北约400米,31.318691555232,121.38275542006
3101097201400030,伤人事故,2014-11-18 16:34:00,广粤路进广灵四路北约200米,31.298650983066,121.47347633195
3101152201400310,死亡事故,2014-7-18 14:09:00,申江南路进古丹路北约500米,31.087976882476,121.65317828978
3101127201400200,死亡事故,2014-8-21 19:26:00,龙吴路出北吴路北约100米,31.062004543265,121.44935939547
3101201201400100,死亡事故,2014-8-1 4:35:00,新四平公路进川南奉公路南约2米,30.944611209672,121.72331194289
3101180201400460,死亡事故,2014-9-30 22:18:00,新府中路进华志路南约1000米,31.2358506711,121.23888071563
3101157201400390,死亡事故,2014-9-7 11:13:00,东三里桥路南码头路东约1米,31.201857995081,121.52727000457
3101143201400130,死亡事故,2014-9-21 9:07:00,嘉罗公路施曹公路东约500米,31.427032589448,121.31762870986
3101129201400250,死亡事故,2014-10-19 13:12:00,立跃路立民路西约0米,31.110760567643,121.56224746096
3101148201400120,死亡事故,2014-9-5 20:05:00,嘉安公路嘉松北路西约300米,31.356180996405,121.21820274955
3101138201400170,死亡事故,2014-10-10 15:35:00,水产路铁山路路口,31.380004365001,121.46934178113
3101124201400200,伤人事故,2014-8-28 19:38:00,昆阳路出江川路北约300米,31.024839538314,121.37261971502
3101075201400090,死亡事故,2014-10-2 23:33:00,大渡河路怒江北路北约0米,31.247586855505,121.40312661031
3101205201400100,死亡事故,2014-8-15 9:40:00,上塑路进沿钱路东约800米,30.924028054887,121.57765779047
3101124201400240,死亡事故,2014-9-30 3:59:00,西环路进闵松路南约300米,31.249161710015,121.48789948569
3101152201400490,死亡事故,2014-11-8 18:30:00,同顺大道茂祥路东约5米,30.89246958473,121.8689141005
3101178201400090,死亡事故,2014-7-10 10:48:00,袜子弄出中山东路北约150米,31.013529369117,121.26781405724
3101130201400160,死亡事故,2014-9-23 23:20:00,外环高速外侧约80km,31.249161710015,121.48789948569
3101096201400020,伤人事故,2014-7-16 0:10:00,周家嘴路新建路西约00米,31.254968048565,121.50688400485
3101049201400050,死亡事故,2014-8-10 6:48:00,衡山路余庆路东约5米,31.206964116425,121.44630663445
3101070201400070,死亡事故,2014-8-6 17:52:00,真南路出红柳路东约50米,31.29911070218,121.36150519564
3102301201400110,死亡事故,2014-9-24 9:27:00,草港公路建设公路西约500米,31.622725551125,121.57746468084
3101014201400020,死亡事故,2014-8-25 5:20:00,中山南路会馆弄西约0米,31.216484699982,121.51038262185
3101170201400130,死亡事故,2014-9-13 16:50:00,山房公路东侧2km约100米,30.917891488537,121.27070696749
3101208201400090,死亡事故,2014-7-31 20:23:00,四平公路东侧2km约400米,30.909587559907,121.7371852079
3101125201400220,伤人事故,2014-9-14 13:28:00,纪翟路出北青公路北约200米,31.228872104318,121.28720251564
3101045201400050,死亡事故,2014-8-6 7:35:00,柳州路出宜山路北约150米,31.173852911784,121.43144456055
3101153201400450,死亡事故,2014-10-15 20:20:00,顾唐路上丰路东约1米,31.233760864975,121.67058604921
3101121201400210,伤人事故,2014-9-10 18:44:00,莲花南路向阳路北约20米,31.076858108573,121.43235129935
3101206201400090,死亡事故,2014-7-2 19:00:00,大叶公路东侧41km约100米,30.985723321869,121.59692514022
3101172201400110,死亡事故,2014-8-11 4:55:00,昆港公路进佘天昆公路南约200米,31.04911167282,121.14213216568
3101127201400220,死亡事故,2014-9-23 15:00:00,剑川路虹梅南路东约1米,31.024352390538,121.39926457394
3101159201400340,死亡事故,2014-7-31 17:38:00,高科东路顾唐路东约1米,31.231348319577,121.73570263012
3101180201400440,死亡事故,2014-9-5 17:45:00,漕盈公路清河湾路(南)南约5米,31.172602945153,121.10778030003
3101122201400220,死亡事故,2014-9-19 17:48:00,莲花南路出东川路南约500米,31.081472209725,121.43259484165
3101151201400310,死亡事故,2014-7-18 8:23:00,申江南路川周公路南约5米,31.087976882476,121.65317828978
3101138201400120,死亡事故,2014-7-9 5:14:00,沪太公路月罗公路路口,31.411319343562,121.35035166106
3101175201400130,死亡事故,2014-9-19 2:50:00,大叶公路进车亭公路东约2700米,30.985723321869,121.59655683496
3101159201400390,死亡事故,2014-9-12 19:49:00,外环高速西侧外环高速内侧长清路下匝道前约20米,31.132169062864,121.46288401284
3101177201400110,死亡事故,2014-8-13 3:00:00,佘北公路桃源路北约80米,31.136245314463,121.20171942016
3101087201400030,伤人事故,2014-8-17 19:58:00,西藏北路进南山路南约10米,31.260838120827,121.47507827029
3101135201400140,死亡事故,2014-8-9 5:05:00,殷高西路高境路西约1米,31.326785451327,121.48379577101
3101201201400140,死亡事故,2014-10-10 21:00:00,新四平公路海杰路东约200米,30.952540626307,121.73660827568
3101151201400500,死亡事故,2014-11-14 20:02:00,杨高北路进胶东路北约80米,31.265271416945,121.60575369306
3101171201400110,死亡事故,2014-8-5 6:42:00,沈海高速东侧沈海高速前约500米,31.249161710015,121.48789948569
3101044201400050,死亡事故,2014-8-14 23:39:00,肇嘉浜路大木桥路西约20米,31.206563691579,121.45851480934
3101188201400390,死亡事故,2014-8-5 7:43:00,青赵公路出曙光路北约200米,31.253031543216,121.10126585584
3101158201400360,死亡事故,2014-8-14 22:03:00,张杨北路航津路东约1米,31.337690362703,121.59505392852
3101141201400120,死亡事故,2014-9-10 6:42:00,伊宁路永盛路西约100米,31.336962047249,121.23760582787
3101160201400070,死亡事故,2014-8-28 15:30:00,金张公路进建乐路南约10米,30.836736045749,121.22196724971
3101157201400350,死亡事故,2014-8-8 9:52:00,老芦公路两港大道西北约5米,30.920590314338,121.8925157348
3102303201400120,死亡事故,2014-10-24 7:27:00,三沙洪路出人民路北约30米,31.641655497531,121.39607895713
3101146201400110,死亡事故,2014-8-24 17:51:00,嘉安公路回城西路南约10米,31.362238624945,121.23203664453
3101177201400100,死亡事故,2014-7-25 1:50:00,沈海高速西侧1295km约900米,31.249161710015,121.48789948569
3101206201400090,死亡事故,2014-7-25 4:05:00,团青公路奉村路东约2米,30.947604113482,121.7258778385
3101149201400130,死亡事故,2014-10-14 10:01:00,宝安公路嘉松北路西约5米,31.339927524535,121.298841349
3101080201400030,伤人事故,2014-7-28 10:15:00,恒丰路天目西路北约1米,31.250279884941,121.46148860033
3101155201400330,死亡事故,2014-7-27 8:05:00,华夏高架路东侧BWP0280约1米,31.201739541562,121.67403085411
3101156201400360,死亡事故,2014-8-11 23:20:00,沪南公路上南路东约20米,31.140994715006,121.52247761205
3101129201400260,伤人事故,2014-10-23 22:37:00,七莘路华茂路北约100米,31.148553130331,121.36000419181
3101124201400260,伤人事故,2014-10-22 15:12:00,剑川路老中春路北约2米,31.024352390538,121.39926457394
3101178201400140,死亡事故,2014-9-23 6:50:00,文翔路进辰塔路西约300米,31.037639132012,121.18958983711
3101150201400350,死亡事故,2014-8-11 9:35:00,浦东北路大同路西北约10米,31.347750052283,121.58433176743
3101125201400190,死亡事故,2014-7-29 21:05:00,剑川路出金平路西约10米,31.027905945008,121.41370165861
3101158201400330,死亡事故,2014-7-28 4:25:00,老芦公路进三三公路南约100米,30.96166671443,121.89165910977
3101043201400060,死亡事故,2014-9-4 6:26:00,沪闵路虹梅路东北约10米,31.164838239581,121.41081125732
3101159201400470,死亡事故,2014-10-29 11:50:00,华东路进华夏东路北约600米,31.20709439941,121.71361704805
3101156201400310,死亡事故,2014-7-11 20:43:00,华夏中路金科路东约1米,31.179532299306,121.60910809968
3101127201400250,死亡事故,2014-10-14 10:35:00,莲花南路银都路北约300米,31.110661407341,121.44251697635
3101123201400190,死亡事故,2014-7-27 0:32:00,中春路进黎安路南约1000米,31.121332054514,121.36987807493
3101134201400150,死亡事故,2014-9-20 16:10:00,富锦路出同济路西约500米,31.394903900834,121.49058377078
3101153201400400,死亡事故,2014-9-14 17:25:00,沪城环路出大学城共享区道路北约200米,30.886080358435,121.91339635321
3101158201400390,死亡事故,2014-9-7 20:55:00,世纪大道进东方路西约100米,31.217661996301,121.53441159715
3101170201400140,死亡事故,2014-10-2 8:35:00,叶新公路进文工路东约50米,30.953838099796,121.1099072602
3101125201400220,伤人事故,2014-9-16 12:44:00,沪闵路元江路北约120米,31.05715286282,121.41428137917
3101171201400120,死亡事故,2014-9-2 15:05:00,张庄公路塔闵公路北约3000米,30.994484702366,121.14920145275
3101048201400060,死亡事故,2014-9-27 0:02:00,罗秀路进虹梅南路(西)东约60米,31.137137540963,121.43641810177
3101144201400140,死亡事故,2014-10-29 8:26:00,宝钱公路嘉唐公路东约2000米,31.434417999256,121.21869327018
3101183201400520,死亡事故,2014-12-8 14:34:00,华徐公路进盈港东路南约200米,31.214038186738,121.26699219663
3101157201400530,死亡事故,2014-12-2 15:40:00,申江路进高科中路北约50米,31.204180016035,121.62338108818
3101071201400070,伤人事故,2014-8-22 12:00:00,光复西路进大渡河路(西)东约60米,31.247586855505,121.40312661031
3101129201400200,伤人事故,2014-8-16 16:59:00,陈行公路苏召路西约0米,31.096269316572,121.54838226453
3102211201400010,伤人事故,2014-7-21 23:10:00,东海大桥进沪K11约0米,30.858354330132,121.92353988249
3101109201400050,死亡事故,2014-11-30 19:48:00,包头路进嫩江路北约230米,31.323417752513,121.54501616916
3101084201400030,伤人事故,2014-8-2 5:04:00,老沪太路进沪太路东约100米,31.275913295653,121.45241194718
3101185201400370,死亡事故,2014-7-22 1:50:00,沪渝高速北侧50km约600米,31.249161710015,121.48789948569
3101178201400110,伤人事故,2014-8-13 10:46:00,莘松路场东路西约5米,31.098448706196,121.36736178735
3102250201400010,死亡事故,2014-7-21 1:10:00,北进场路浦东机场北立交东约0米,31.155341598993,121.81049994857
3101156201400410,死亡事故,2014-9-19 9:57:00,国展路进云台路东约70米,31.186631295049,121.49549198632
3101172201500010,死亡事故,2015-1-9 19:20:00,沈海高速东侧1307km约400米,31.249161710015,121.48789948569
3101126201400210,死亡事故,2014-8-29 22:00:00,申嘉湖高速北侧34km约500米,31.249161710015,121.48789948569
3101067201400020,伤人事故,2014-7-5 15:10:00,余姚路延平路南约3米,31.23696903159,121.44620568467
3101128201400210,伤人事故,2014-9-4 20:04:00,宜山路进古美路东约60米,31.153968722767,121.41019243711
3101174201400130,死亡事故,2014-9-14 15:40:00,人民北路出辰花路南约150米,31.063420464936,121.2279521428
3101136201400140,死亡事故,2014-8-22 17:15:00,友谊路进江杨北路西约1958米,31.249161710015,121.48789948569
3101188201400370,死亡事故,2014-7-22 4:40:00,沪渝高速北侧50km约700米,31.249161710015,121.48789948569
3101127201400220,伤人事故,2014-9-12 10:28:00,北松公路进中青路东约200米,31.020412597207,121.34881972498
3101130201400130,死亡事故,2014-8-1 1:30:00,共康东路岭南路路口,31.32894931465,121.46208858217
3101154201400520,死亡事故,2014-11-22 20:44:00,金葵路出金粤路东约150米,31.244859751291,121.63865283521
3101134201400140,死亡事故,2014-8-14 22:10:00,双城路进宝东路西约200米,31.396616654393,121.50131969212
3101187201400460,死亡事故,2014-9-25 4:57:00,前云路出沪青平公路南约1600米,31.1533678379,121.27486717751
3101151201400510,死亡事故,2014-11-20 0:50:00,上海绕城高速外侧48.5km约20米,31.249161710015,121.48789948569
3101159201400420,死亡事故,2014-9-23 21:09:00,高科东路出华东路东约800米,31.220602364299,121.66564973018
3102305201400080,死亡事故,2014-7-23 9:20:00,向堡公路进合五公路东约400米,31.523191954441,121.69554412394
3101145201400090,死亡事故,2014-7-9 8:15:00,浏翔公路宝钱公路东约1米,31.42332615326,121.30071100214
3101175201400100,死亡事故,2014-7-31 19:20:00,沈砖公路出城隆路东约300米,31.097799089858,121.26621870618
3101054201400030,死亡事故,2014-8-22 11:01:00,中山西路虹桥路东北约15米,31.204520283811,121.42073752961
3101188201400450,死亡事故,2014-9-16 15:35:00,纪鹤公路进宝丰路东约10米,31.26334412657,121.22010269625
3101136201400150,死亡事故,2014-9-16 9:18:00,长江路进军工路西约50米,31.355760609932,121.49877562084
3101124201400290,伤人事故,2014-11-26 13:58:00,元江路龙吴路西北约0米,31.05715286282,121.41428137917
3101055201400030,死亡事故,2014-10-30 11:02:00,古北路延安西路西南约20米,31.204761003361,121.40496275216
3101124201400180,伤人事故,2014-7-27 10:42:00,林海公路东佳路南约3000米,30.930233742508,121.57611055265
3101135201400200,死亡事故,2014-11-22 8:15:00,虎林路进呼兰路南约200米,31.342755541292,121.4646100934
3101083201400040,伤人事故,2014-10-16 7:40:00,共和新路柳营路北约5米,31.271990803723,121.4669799482
3101079201400080,死亡事故,2014-9-19 9:45:00,凯旋北路进盘湾里西约50米,31.232607517681,121.41817786286
3101157201400400,死亡事故,2014-9-12 18:23:00,沪南公路进航南公路北约400米,30.993432279029,121.5700979154
3101019201400030,死亡事故,2014-11-21 11:00:00,金陵西路淡水路东约8米,31.229660475497,121.47886964145
3101126201400220,伤人事故,2014-9-15 8:20:00,三鲁公路进东方一路北约300米,31.035789192965,121.53865986627
3101128201400230,伤人事故,2014-9-23 18:30:00,航南路进航东路西约20米,31.173610131942,121.35829966879
3101126201400240,死亡事故,2014-10-8 8:25:00,古美路平南路北约0米,31.153968722767,121.41019243711
3101081201400030,死亡事故,2014-9-4 7:45:00,共和新路进汾西路南约10米,31.319732519489,121.46158765827
3101128201400290,伤人事故,2014-11-17 19:02:00,沪青平公路华翔路西北约15米,31.207424482076,121.31044805805
3101124201400180,死亡事故,2014-7-21 19:56:00,七莘路进中谊路南约200米,31.172391216909,121.34848343353
3101121201400250,伤人事故,2014-10-12 18:20:00,北松公路出中春路东约400米,31.020412597207,121.34881972498
3101153201400370,死亡事故,2014-8-21 10:02:00,浦东南路进洪山路东约1米,31.162045313397,121.51350272344
3101051201500010,死亡事故,2015-4-7 10:07:00,遵义路进天山路北约80米,31.216778817589,121.41425163717
3101081201400040,死亡事故,2014-10-11 8:00:00,保德路阳曲路东约1米,31.32213826831,121.45879084875
3101042201400070,伤人事故,2014-11-24 0:52:00,漕溪北路蒲汇塘路南约30米,31.193934516145,121.43769382584
3101174201400100,死亡事故,2014-7-15 11:15:00,叶兴公路出叶政路南约2KM,30.93887259498,121.3165797109
3101121201400260,伤人事故,2014-10-27 9:19:00,莘建东路出广贤路西约50米,31.118838141064,121.39269785197
3101019201400020,死亡事故,2014-9-4 11:30:00,徐家汇路顺昌路西约0米,31.221543343034,121.48529543007
3101170201400130,伤人事故,2014-9-11 5:40:00,古楼公路出刘五公路西约10米,31.115554022636,121.25624908346
3101151201400490,死亡事故,2014-11-3 23:35:00,两港大道(南北)出沪南公路南约500米,30.920590314338,121.8925157348
3101180201400380,死亡事故,2014-7-27 13:30:00,盈淀路进青赵公路西约80米,31.182698017136,121.08081766733
3101140201400130,死亡事故,2014-9-27 14:10:00,京沪高速公路（上海段）往南京方向1211KM+800M,31.254738485566,121.38625419426
3101127201400200,死亡事故,2014-8-18 6:03:00,中春路沪松公路西约5米,31.121332054514,121.36987807493
3101152201400350,死亡事故,2014-8-5 21:20:00,上海绕城高速内侧50.3km约30米,31.249161710015,121.48789948569
3101161201500010,死亡事故,2015-1-20 20:46:00,朱吕公路进朱平公路东约1米,30.838449350166,121.22819368906
3101078201400080,死亡事故,2014-9-18 9:42:00,桃浦路真光路西约2米,31.265527736622,121.39595273712
3101152201400410,死亡事故,2014-9-21 11:05:00,沪南公路建豪路东约20米,31.033430979487,121.64921727631
3101123201400300,死亡事故,2014-12-11 13:16:00,召泰路出鲁南路南约10米,31.027617381382,121.55768532839
3101136201400150,伤人事故,2014-9-7 13:01:00,沪太路联白路东约1米,31.288795980563,121.42945269564
3101041201400040,死亡事故,2014-7-6 18:28:00,虹漕路进漕宝路南约300米,31.179075593783,121.4159832504
3101078201400080,死亡事故,2014-8-30 17:08:00,桃浦路进双河路西约50米,31.264208372688,121.38446464122
3101204201400100,死亡事故,2014-8-15 11:20:00,泰青公路东侧3km约200米,30.962239210845,121.57584087236
3101186201400460,死亡事故,2014-9-29 8:00:00,沪青平公路出嘉松中路西约30米,31.203728636498,121.22773630963
3101171201400180,伤人事故,2014-12-2 14:58:00,沪松公路涞亭南路南约20米,31.137687694236,121.34493575109
3101100201400050,死亡事故,2014-12-15 13:10:00,军工路港水路北约1米,31.332347356314,121.55543717961
3101173201400090,伤人事故,2014-7-14 18:08:00,古楼公路出横港公路西约250米,31.124452092591,121.26484030309
3101129201400170,死亡事故,2014-7-18 15:25:00,莲花南路澄江路东约5米,31.087860604423,121.44922928939
3101172201400130,死亡事故,2014-9-19 10:00:00,申嘉湖高速南侧53公里km约200米,31.249161710015,121.48789948569
3101143201500000,死亡事故,2015-1-2 13:46:00,宝钱公路安新路南约1米,31.463113808775,121.31806907
3101129201400250,伤人事故,2014-10-17 23:13:00,中春路光中路北约00米,31.078446267646,121.39588519892
3101184201400510,死亡事故,2014-11-20 22:30:00,陈章路出华重公路北约400米,31.225519630827,121.240475746
3101067201400030,死亡事故,2014-9-4 13:44:00,长乐路襄阳北路西约7米,31.224806971379,121.46173077182
3101178201400110,死亡事故,2014-7-31 14:16:00,北松公路出李高路西约50米,31.026096521451,121.3224894266
3101133201400130,伤人事故,2014-7-28 20:12:00,沪太公路曹新公路东约1米,31.42179094487,121.34287028711
3101164201400090,死亡事故,2014-9-24 5:20:00,亭枫公路松金公路东约10米,30.929048650339,121.24163640612
3101129201400230,伤人事故,2014-9-26 18:56:00,中谊路出七莘路西约70米,31.146595183312,121.36378358498
3101089201400040,死亡事故,2014-10-4 9:20:00,共和新路洛川东路南约1米,31.276239912708,121.46820096188
3101017201400030,死亡事故,2014-10-24 8:50:00,肇嘉浜路进瑞金南路西约30米,31.204845000631,121.47514220538
3101134201400170,死亡事故,2014-10-14 10:39:00,城银路园康路东约1米,31.319774254794,121.35242400785
3101177201400140,死亡事故,2014-9-30 17:20:00,泗陈公路方泗公路北约5米,31.136157000972,121.28028966667
3101178201400120,伤人事故,2014-8-25 6:32:00,莘松路进场西路西约60米,31.105826381801,121.36516724585
3101187201400490,死亡事故,2014-11-1 5:11:00,嘉松中路华志路北约5米,31.238057659263,121.23318304944
3101135201400130,死亡事故,2014-8-6 6:38:00,潘泾路进宝安公路南约500米,31.401645087597,121.3890589987
3101181201400450,死亡事故,2014-9-13 7:10:00,新胜路出友爱路北约1000米,31.223142613168,121.11009430538
3101130201400130,死亡事故,2014-7-27 16:12:00,月罗公路抚远路东约1米,31.415163647584,121.36838528251
3101151201400370,死亡事故,2014-8-20 19:25:00,大川公路进拱为路北约500米,31.065371648917,121.76332276495
3101120201400210,死亡事故,2014-9-3 7:49:00,浦星公路联跃路东约0米,31.051346996107,121.51922460256
3101178201400100,伤人事故,2014-7-17 21:15:00,泗陈公路进横港公路西约300米,31.124452092591,121.26484030309
3101122201400210,死亡事故,2014-9-4 6:45:00,纪翟路北翟支路东北约5米,31.211384005786,121.30414832864
3101207201400140,死亡事故,2014-10-20 11:45:00,浦卫公路奉庄公路东约1米,30.939075020145,121.4233776558
3101011201400020,伤人事故,2014-8-20,复兴东路出大夫坊东约30米,31.226120829721,121.50282986225
3101092201400030,伤人事故,2014-9-12 14:10:00,宝山路海伦西路南约00米,31.265596996892,121.48851471717
3101148201400130,死亡事故,2014-9-25 15:10:00,城中路城中街西约1米,31.389834342262,121.25657685807
3101044201400060,死亡事故,2014-9-9 14:39:00,百色路龙川北路西约5米,31.148671089894,121.44417487103
3101101201400030,死亡事故,2014-7-23 15:30:00,国顺东路出双阳北路东约700米,31.300919587861,121.53199329853
3101132201400120,伤人事故,2014-7-17 8:05:00,二热一路二热五路北约15米,31.432270417531,121.44082170856
3101173201400140,死亡事故,2014-10-2 18:15:00,叶新公路出中南路东约300米,30.939210462036,121.22559097461
3101170201400110,死亡事故,2014-8-19 5:00:00,大叶公路进车亭公路东约1000米,30.985723321869,121.59655683496
3101179201400120,死亡事故,2014-8-28 1:56:00,沪昆高速北侧47km约0米,31.249161710015,121.48789948569
3101170201400100,伤人事故,2014-7-10 3:01:00,沪松公路进沪亭北路东约200米,31.158559311922,121.31980050177
3101152201400350,死亡事故,2014-8-11 14:00:00,港城路出浦东北路西约1000米,31.357712231187,121.5555400329
3101174201400120,伤人事故,2014-8-20 5:05:00,新车公路三浜路东北约10米,31.035543883524,121.30375603414
3101134201400160,死亡事故,2014-9-23 18:12:00,宝杨路江杨北路(东)东约1米,31.395343023417,121.47302403872
3101145201400160,死亡事故,2014-11-17 17:28:00,胜辛北路汇荣路北约1米,31.421795620665,121.21947862006
3101175201400140,死亡事故,2014-10-7 14:33:00,沪昆高速出沪方向新浜入口匝道,31.141790538707,121.17583785323
3101170201400190,伤人事故,2014-12-8 11:31:00,新松江路出三新北路东约500米,31.045066673201,121.21317659099
3102309201400090,死亡事故,2014-8-8 2:58:00,沪陕高速东侧44km约700米,31.249161710015,121.48789948569
3101179201400130,死亡事故,2014-9-14 23:19:00,新松江路进西林北路西约100米,31.045066673201,121.21317659099
3101142201400130,死亡事故,2014-10-2 6:03:00,百安公路园耀路东约1米,31.35853556089,121.18240056337
3101168201400090,死亡事故,2014-10-20 21:05:00,沈海高速西侧亭卫公路出口,30.818908314705,121.35893266875
3101148201400160,死亡事故,2014-11-17 21:15:00,京沪高速进沪1216.3km约0米,31.249161710015,121.48789948569
3101017201400020,伤人事故,2014-7-21 9:52:00,打浦路隧道中山南一路南约200米,31.191994763546,121.48417362885
3101130201400190,死亡事故,2014-11-7 15:18:00,水产路进铁力路东约100米,31.40031026475,121.47199525793
3101151201400450,死亡事故,2014-10-11 11:00:00,华夏中路张江路东约1米,31.206665324713,121.62623499221
3101175201400140,死亡事故,2014-10-2 21:44:00,长石公路进甘德公路(东)南约200米,30.976734485704,121.20794711444
3101177201400160,死亡事故,2014-10-27 12:45:00,车亭公路进同建公路南约500米,30.925227225246,121.31700199624
3101166201500010,死亡事故,2015-1-20 9:38:00,沈海高速东侧亭卫公路入口前约20米,30.818908314705,121.35893266875
3101078201400090,死亡事故,2014-11-20 10:20:00,真南路出真北路西约50米,31.263066309282,121.39956553593
3101158201400470,死亡事故,2014-10-26 22:57:00,内环高架外侧浦东内环高架内圈锦绣下匝道前约300米,30.88408324973,121.40833126667
3101074201400090,伤人事故,2014-10-4 6:35:00,中山北路光新路东约5米,31.262631427653,121.43697119565
3101044201400050,伤人事故,2014-8-19 22:38:00,漕溪北路出南丹东路约5米,31.196020115717,121.44790646266
3101089201400040,死亡事故,2014-11-3 14:16:00,中兴路共和新路北约1米,31.258632534726,121.47273918694
3101122201400290,伤人事故,2014-11-26 12:56:00,三鲁公路沈杜公路北约30米,31.083032867999,121.5599287431
3101047201400090,死亡事故,2014-12-26 20:01:00,桂林路进吴中路南约250米,31.175942499018,121.42436269989
3101094201400040,死亡事故,2014-11-26 10:42:00,瑞虹路出天镇路北约50米,31.2689747973,121.50565992256
3101137201400120,死亡事故,2014-7-10 20:25:00,富联路进宝安公路北约60米,31.368293609511,121.41391838918
3101136201400140,伤人事故,2014-8-7 14:36:00,长江西路进郁江巷路西约500米,31.344880655477,121.4655351774
3101171201400150,死亡事故,2014-10-18 11:14:00,泗陈公路进沪松公路西约100米,31.120546435476,121.24235651656
3101154201400540,死亡事故,2014-12-3 18:50:00,浦东北路航津路北约1米,31.336898911485,121.61133624499
3101043201400040,死亡事故,2014-7-30 15:57:00,华泾路出位育路西约50米,31.125135569773,121.45455259933
3101126201400250,伤人事故,2014-10-13 15:52:00,北青公路华翔路西北约5米,31.207424482076,121.31044805805
3101133201400200,伤人事故,2014-12-12 17:44:00,友谊路铁力路路口,31.372124221482,121.48517378873
3101129201400210,伤人事故,2014-9-11 20:00:00,中春路颛盛路北约30米,31.070015215524,121.40347501271
3101157201400370,死亡事故,2014-8-23 8:35:00,古棕路出美人蕉路西约200米,30.885654617528,121.91923103884
3101133201400190,伤人事故,2014-11-10 21:29:00,南大路出制革路西约10米,31.305995017322,121.37516103479
3101123201400220,伤人事故,2014-9-18 12:21:00,联友路出纪高路北约200米,31.244110073946,121.27778573798
3101120201400250,死亡事故,2014-10-14 11:35:00,吴中路合川路东约0米,31.178962240086,121.38826407558
3101176201400150,死亡事故,2014-10-21 19:54:00,大叶公路车亭公路东约5米,30.985723321869,121.59655683496
3101101201400030,死亡事故,2014-9-23 23:20:00,中原路翔殷路北约200米,31.321746252433,121.53844595816
3101129201400300,伤人事故,2014-12-6 6:23:00,联友路纪高路西北约3米,31.244110073946,121.27778573798
3101078201400060,死亡事故,2014-7-18 11:45:00,真光路出梅川路南约150米,31.254595783386,121.39060209713
3101152201400400,死亡事故,2014-9-15 13:36:00,卫行路出华夏西路南约360米,31.16999637575,121.58821287393
3101167201400100,死亡事故,2014-11-9 21:00:00,金廊公路进亭枫公路南约1000米,30.856081123506,121.19080591909
3102306201400110,死亡事故,2014-10-15 17:50:00,合五公路进北沿公路南约1100米,31.601450853639,121.72725884758
3102309201400120,死亡事故,2014-11-8 19:07:00,翠竹路进佘山岛路东约200米,31.631616753873,121.43376988544
3101167201400130,死亡事故,2014-12-28 19:55:00,松金公路亭枫公路东南约3米,30.929048650339,121.24163640612
3101175201500020,伤人事故,2015-1-13 17:04:00,昆港公路出光华路南约100米,31.04911167282,121.14213216568
3101152201400580,死亡事故,2014-12-23 18:20:00,川沙路迎宾高速北侧川沙路上匝道北约1米,31.210252137268,121.70186930324
3101177201400160,死亡事故,2014-11-3 12:28:00,叶新公路进松金公路东约800米,30.941933114626,121.1922430552
3101157201400560,死亡事故,2014-12-18 14:42:00,榕桥路金京路东约2米,31.272748069782,121.63727695097
3101176201400190,伤人事故,2014-12-6 9:08:00,昆港公路出佘天昆公路南约300米,31.04911167282,121.14213216568
3101070201400090,死亡事故,2014-10-16 15:22:00,曹杨路出固川路北约80米,31.260465391692,121.41039510382
3102234201400000,死亡事故,2014-11-11 9:55:00,华申路富特西一路东约00米,31.345725520959,121.60588628565
3101125201400300,伤人事故,2014-12-5 9:42:00,虹梅路出吴中路南约50米,31.164838239581,121.41081125732
3102218201400020,死亡事故,2014-11-3 10:08:00,东海大道进能源路西约300米,31.249161710015,121.48789948569
3101121201400280,伤人事故,2014-11-17 20:38:00,浦星公路永南路北约0米,31.010124055133,121.5386439959
3101159201500040,死亡事故,2015-1-30 8:46:00,东亭路进晚霞路南约300米,31.181393531713,121.75896619703
3101120201400230,死亡事故,2014-9-23 19:10:00,江川路进昆阳路西约1000米,31.00164166744,121.38502094296
3101159201400410,死亡事故,2014-9-20 19:56:00,杨高北路东陆路东约10米,31.273535611027,121.60780414276
3101127201400290,伤人事故,2014-11-30 17:10:00,江川路菱川路东约0米,31.002488103167,121.40101606487
3101098201400030,伤人事故,2014-10-25 11:55:00,周家嘴路进通州路东约50米,31.263524542639,121.50247328886
3101121201400310,伤人事故,2014-12-12 14:09:00,江川路出瑞丽路西约150米,31.015263208913,121.41396279153
3101154201400460,死亡事故,2014-10-23 14:20:00,锦绣路进高青路南约150米,31.193691589838,121.54654061606
3101121201400270,伤人事故,2014-10-29 18:48:00,三鲁公路东方一路北约10米,31.035789192965,121.53865986627
3101209201400190,死亡事故,2014-12-3 19:31:00,叶庄公路东侧1km约200米,30.902742802408,121.39034256768
3101152201500030,死亡事故,2015-1-28 17:25:00,川桥路金港路东约1米,31.257254944977,121.62060742799
3101171201500010,伤人事故,2015-1-2 14:15:00,玉树路出松汇西路南约100米,31.003973998226,121.21585621207
3101149201400160,死亡事故,2014-11-22 17:25:00,博园路联西路东约1米,31.27518782552,121.25712284637
3101142201400150,死亡事故,2014-11-17 19:00:00,金昌西路嘉松北路北约2米,31.295802103049,121.28460553058
3101173201500000,伤人事故,2015-1-6 22:22:00,上海绕城高速西侧129.2km约20米,31.249161710015,121.48789948569
3101205201500000,死亡事故,2015-1-8 7:44:00,环城南路环城西路东约1米,30.91009124566,121.46449223302
3101175201500010,伤人事故,2015-1-13 7:46:00,沪松公路张泾路东约1米,31.102339853715,121.28704929526
3102305201500000,死亡事故,2015-1-9 8:15:00,三双公路出利民路北约200米,31.662046015746,121.39726242523
3101171201400190,死亡事故,2014-12-10 7:53:00,九泾路进涞寅路北约3米,31.147217167335,121.29794169513
3101159201500060,死亡事故,2015-2-24 22:25:00,杨高中路进金新路西约10米,31.258184394294,121.60625314104
3101128201400270,伤人事故,2014-10-29 18:36:00,兰竹路出青杉路北约100米,31.183237439015,121.36816552285
3101179201400130,死亡事故,2014-9-18 18:34:00,人民北路进思贤路南约100米,31.063420464936,121.2279521428
3102268201400000,死亡事故,2014-10-7 17:29:00,目华路出北河路北约37米,30.81781671245,121.47044229252
3101158201400480,死亡事故,2014-11-3 16:10:00,沪南公路沉香村,31.073751430166,121.59445549715
3101203201400110,死亡事故,2014-9-7 6:25:00,望园路进航南公路北约1000米,30.953523696345,121.48368233748
3101145201400140,死亡事故,2014-11-3 17:14:00,娄陆公路嘉唐公路东约1000米,31.459253354901,121.20598616741
3101207201400170,死亡事故,2014-10-18 16:50:00,海湾路南海公路东约2米,30.847363853184,121.49478721624
3102306201400140,死亡事故,2014-12-8 9:05:00,港沿公路出草港公路北约500米,31.622725551125,121.57746468084
3101172201500020,伤人事故,2015-1-8 7:18:00,莘砖公路出九新公路东约120米,31.099250839984,121.31075865886
3101120201400290,死亡事故,2014-11-24 19:05:00,虹梅南路出金都路北约300米,31.094783796244,121.42704931787
3101129201500010,死亡事故,2015-1-14 4:06:00,吴中路进虹梅路西约150米,31.164838239581,121.41081125732
3101170201400170,死亡事故,2014-11-5 8:20:00,昆港公路港兴路东约10米,31.04911167282,121.14213216568
3101150201400470,死亡事故,2014-10-26 15:15:00,老芦公路进同顺大道北约1000米,30.89246958473,121.8689141005
3101179201500020,伤人事故,2015-1-14 19:50:00,松东路出环城路北约200米,31.022526047762,121.26233344143
3101170201500030,伤人事故,2015-1-23 21:10:00,龙源路进文汇路北约800米,31.067098900082,121.20723051727
3101128201500030,死亡事故,2015-3-2 9:46:00,东川路天星路西约0米,31.006625763342,121.37690757156
3101043201400070,死亡事故,2014-11-11 12:26:00,田东路出漕东支路东约150米,31.180079147547,121.44615739716
3101203201400180,死亡事故,2014-12-2 20:15:00,团青公路北唐路东约1米,30.947604113482,121.7258778385
3101054201500000,死亡事故,2015-1-17 22:05:00,虹桥路出中山西路东约250米,31.198248596211,121.38356537453
3101130201400210,伤人事故,2014-12-14 8:55:00,水产路进牡丹江路西约100米,31.408212726034,121.4897921139
3101154201400430,死亡事故,2014-10-3 9:15:00,周祝公路进南祝路(西)西约1000米,31.117616396708,121.68118942377
3101127201400280,伤人事故,2014-11-9 13:29:00,三鲁公路联航路北约0米,31.086150462754,121.53653000546
3101139201400170,死亡事故,2014-10-10 8:53:00,月春路进月罗路南约100米,31.418886290022,121.39514599499
3101131201400140,死亡事故,2014-8-15 7:28:00,江杨北路东侧0km约98米,31.399361183592,121.45074644924
3101054201400030,死亡事故,2014-11-19 1:39:00,外环高速东侧71.5km前约0米,31.249161710015,121.48789948569
3101187201400510,死亡事故,2014-11-23 11:39:00,崧泽大道诸光路东南约5米,31.175389849468,121.31799053115
3101120201500010,伤人事故,2015-1-25 17:03:00,北青公路华翔路西南约15米,31.207424482076,121.31044805805
3101125201400230,伤人事故,2014-9-28 7:20:00,浦星公路进鲁南路北约500米,31.029462176561,121.56804454262
3101123201500040,伤人事故,2015-3-20 7:35:00,沧源路进景谷东路北约150米,31.026556573301,121.43059685928
3101162201400130,死亡事故,2014-12-18 10:42:00,漕廊公路进秦弯路东约1000米,30.790177907414,121.26412661194
3101051201400040,死亡事故,2014-12-4 17:41:00,虹桥路出凯旋路西约20米,31.214564591974,121.42357402628
3101201201400160,死亡事故,2014-11-14 11:06:00,平庄西路六墩村中心路东约1米,30.894830309383,121.47557620732
3101130201400180,死亡事故,2014-10-26 7:15:00,朗枫路沪太路东约1米,31.336870782445,121.41435126195
3101154201400530,死亡事故,2014-11-30 17:50:00,沪南公路沉香村,31.073751430166,121.59445549715
3101207201400110,死亡事故,2014-9-8 22:00:00,浦卫公路进科工路北约200米,30.846685509153,121.43128552993
3101150201400430,死亡事故,2014-10-2 22:49:00,秀沿路进康新公路东约150米,31.14184956054,121.59179969913
3102308201400130,死亡事故,2014-11-23 9:25:00,北陈公路出陈彷公路北约1000米,31.507831035025,121.82035847246
3101129201400240,伤人事故,2014-9-29 21:44:00,元江路莲花南路西约0米,31.05715286282,121.41428137917
3101129201500010,伤人事故,2015-1-20 19:32:00,浦星公路沈杜公路北约0米,31.083032867999,121.5599287431
3101124201400260,伤人事故,2014-10-23 10:10:00,浦星公路进联航路北约150米,31.086150462754,121.53653000546
3101153201500000,死亡事故,2015-1-1 4:17:00,东川公路金海路东约2米,31.276267606886,121.68319812472
3101122201400310,伤人事故,2014-12-15 15:55:00,吴中路进吴宝路东约5米,31.172150645858,121.35183847076
3101205201400190,死亡事故,2014-12-14 17:30:00,奉柘公路进钦林南路东约100米,30.834232445315,121.48153292955
3101143201400170,死亡事故,2014-12-16 18:32:00,伊宁路环南四路(南)西约100米,31.337205111655,121.23797785302
3101204201400200,死亡事故,2014-12-29 8:05:00,胡桥新街进浦卫公路东约150米,31.047420438166,121.69652232923
3101183201500010,死亡事故,2015-1-14 17:37:00,漕盈公路清河湾路(南)南约10米,31.172602945153,121.10778030003
3101209201400160,死亡事故,2014-11-8 10:30:00,浦卫公路光明中心路西约300米,30.927435053789,121.41284498237
3101153201400430,死亡事故,2014-10-2 20:30:00,沔北路孙桥路西约1000米,31.171630402683,121.6377690023
3101154201400570,死亡事故,2014-12-21 17:50:00,川沙路进川图路北约2米,31.210252137268,121.70186930324
3101178201500040,伤人事故,2015-1-24 12:27:00,辰花公路龙源路北约10米,31.075595019687,121.26178054966
3101156201400410,死亡事故,2014-9-22 16:15:00,南芦公路出马五公路西约400米,30.937940330446,121.80625788855
3101127201400270,伤人事故,2014-10-28 13:00:00,剑川路进沧源路东约300米,31.024205802897,121.43355946456
3101062201400040,死亡事故,2014-10-14 10:02:00,新闸路石门二路西约2米,31.136741392579,121.64137552285
3101142201400150,死亡事故,2014-11-10 14:43:00,嘉新公路宝安公路东约1米,31.361848571134,121.28515158355
3101202201400200,死亡事故,2014-12-25 7:00:00,浦星公路进奉柘公路西约100米,30.955018214554,121.52848753103
3101139201400220,财产损失事故,2014-12-29 7:30:00,沪太路行知路东约1米,31.289805270837,121.42119844658
3101137201400190,死亡事故,2014-11-1 20:53:00,宝杨路通达路东约1米,31.384531283582,121.45953946691
3101017201400020,死亡事故,2014-9-25 22:45:00,金陵中路进普安路东约70米,31.231127569102,121.48340144992
3101090201400030,死亡事故,2014-11-23 15:52:00,奎照路进凉城路西约100米,31.306091488467,121.47986982828
3101146201400150,死亡事故,2014-11-4 5:30:00,外环高速东侧75.6km约1米,31.249161710015,121.48789948569
3101157201400470,死亡事故,2014-10-26 15:12:00,金沪路新金桥路东约10米,31.257135441234,121.61153410127
3101148201400160,死亡事故,2014-11-30 10:58:00,曹安公路万镇路西约200米,31.255410372131,121.38455272996
3101205201400110,死亡事故,2014-9-9 5:33:00,大叶公路东侧25km约100米,30.985723321869,121.59678141134
3101157201400450,死亡事故,2014-10-14 9:34:00,外环高速外侧18km约50米,31.249161710015,121.48789948569
3101132201400160,死亡事故,2014-10-5 13:55:00,江杨南路进长江西路南约1377米,31.334171552791,121.47387511133
3101096201400030,死亡事故,2014-11-18 10:11:00,四川北路海宁路西约00米,31.263453331709,121.4894605134
3101157201400550,死亡事故,2014-12-10 10:55:00,东川公路凌白公路东约1米,31.232168335129,121.7651819681
3101175201400190,死亡事故,2014-12-9 15:55:00,广富林路辰塔路西南约15米,31.037639132012,121.18958983711
3101065201400040,死亡事故,2014-11-1 14:45:00,武宁南路康定路南约8米,31.234727655511,121.44157850221
3101121201400280,死亡事故,2014-11-14 2:50:00,申嘉湖高速西侧33km约300米,31.249161710015,121.48789948569
3101134201400220,伤人事故,2014-12-29 17:18:00,牡丹江路盘古路路口,31.413218690671,121.48739154962
3101153201500010,死亡事故,2015-1-8 10:50:00,世博大道进白莲泾路南约10米,31.195262906203,121.50706352941
3101153201500010,死亡事故,2015-1-3 15:16:00,新环东路进牌楼东路东约150米,31.030185275544,121.66102386732
3101017201400030,死亡事故,2014-9-27 10:35:00,鲁班路斜土路北约0米,31.203981185437,121.48342111203
3101177201400170,死亡事故,2014-11-21 12:50:00,沪昆高速西侧沪昆高速枫泾收费站广场前约100米,30.860954039575,121.07029213544
3101088201500000,伤人事故,2015-1-13 19:22:00,共和新路出大宁路北约500米,31.294617854291,121.45765266063
3101148201400150,死亡事故,2014-11-13 19:05:00,胜竹路永新路东约0米,31.409904301029,121.26915479528
3101208201400200,死亡事故,2014-12-27 17:30:00,航南公路出泰西路西约5米,30.986793313975,121.55920035746
3101204201400200,死亡事故,2014-12-27 7:10:00,浦星公路东侧30km约100米,30.989054381003,121.52241146173
3101054201400030,死亡事故,2014-11-14 10:48:00,古北路出长宁路南约10米,31.204761003361,121.40496275216
3101103201400060,死亡事故,2014-11-18 14:10:00,嫩江路出中原路西约150米,31.320844163346,121.54205737538
3101131201400220,财产损失事故,2014-12-29 23:28:00,樟岭路盘古路东约0米,31.413765357238,121.48346420824
3101209201400150,死亡事故,2014-11-2 18:46:00,扶港路进大叶公路北约100米,30.985723321869,121.59655683496
3101161201400100,死亡事故,2014-11-10 8:10:00,亭卫公路进大慈路南约200米,30.818908314705,121.35893266875
3101166201400130,死亡事故,2014-12-11 17:42:00,其他路蔷薇村,30.841568828548,121.16134196279
3101089201400040,死亡事故,2014-11-7 11:07:00,沪太路出华阴路北约60米,31.26664306975,121.45102912083
3101145201400160,死亡事故,2014-11-21 17:55:00,徐潘路出劳动路东约300米,31.44868650462,121.33027968739
3102219201400020,伤人事故,2014-11-14 9:17:00,港建路申东路口,31.327804532322,121.65985163343
3101145201400170,伤人事故,2014-12-14 6:00:00,博园路新黄路西约10米,31.274569368547,121.22450737832
3101045201400080,死亡事故,2014-12-19 12:18:00,冠生园路出桂林路东约100米,31.169586731582,121.43319961146
3101129201500000,死亡事故,2015-1-3 6:30:00,华宁路出北松公路南约300米,31.037115004625,121.39326649912
3101174201400200,死亡事故,2014-12-26 22:50:00,车亭公路出叶新公路北约1000米,30.966879506562,121.32341834726
3101152201400400,死亡事故,2014-9-15 14:20:00,南六公路出宣春路南约500米,31.102010538869,121.71562004746
3101136201400200,死亡事故,2014-12-12 22:46:00,长江路长江南路西约30米,31.355760609932,121.49877562084
3101094201400030,死亡事故,2014-11-8 8:40:00,四川北路邢家桥南路北约20米,31.261173973645,121.49014532493
3101170201400140,死亡事故,2014-10-7 17:06:00,卖新公路马明路西北约10米,31.074903302914,121.29680773983
3101170201400200,伤人事故,2014-12-20 9:43:00,泗砖路出长施公路南约70米,31.101728570268,121.29100122237
3101150201400440,死亡事故,2014-10-5 21:45:00,沪城环路出橄榄路南约200米,30.901247299173,121.90429797725
3101157201400480,死亡事故,2014-11-2 18:40:00,沪南公路出沈庄路南约100米,31.086765384951,121.58687576414
3101136201400220,财产损失事故,2014-12-29 15:00:00,江杨北路进富锦路北约20米,31.399361183592,121.45074644924
3101172201400160,伤人事故,2014-10-24 7:37:00,辰花路出沪松公路西约10米,31.078744875329,121.26197366827
3102239201400000,伤人事故,2014-10-28 8:33:00,富特中路出新灵路北约50米,31.322693963108,121.627442428
3101144201400180,死亡事故,2014-12-24 21:18:00,沈石路进宝安公路西约100米,31.352054800342,121.31088419975
3101178201500030,伤人事故,2015-1-19 15:45:00,荣乐东路出联阳路东约20米,31.035509462249,121.28367861224
3101124201400250,伤人事故,2014-10-13 11:11:00,中春路北松公路南约200米,31.121332054514,121.36987807493
3101125201400260,死亡事故,2014-10-24 20:15:00,沪闵路莘建路西约0米,31.111517286016,121.38301056757
3101179201400160,死亡事故,2014-10-28 8:45:00,北松公路进香泾路东约10米,31.020412597207,121.34881972498
3102303201500000,死亡事故,2015-1-10 18:00:00,北沿公路进小洋公路东约1500米,31.249161710015,121.48789948569
3101182201400550,死亡事故,2014-12-22 16:55:00,练西公路进沪青平公路南约1000米,31.055322822518,120.99389830081
3101140201500000,死亡事故,2015-1-1 23:35:00,临洮路靖远路东约1米,31.263954526723,121.33646178818
3101129201500020,死亡事故,2015-2-24 16:22:00,北翟路南华街西北约15米,31.230258400383,121.32632459824
3101167201400100,死亡事故,2014-10-24 20:32:00,金廊公路进朱吕公路北约200米,30.838449350166,121.22819368906
3101172201500000,死亡事故,2015-1-2 6:08:00,沪松路进繁华路南约50米,31.031618466141,121.25176062991
3101124201500000,死亡事故,2015-1-1 19:30:00,吴中路进桂林北路西约200米,31.180662725161,121.38468442155
3101136201400160,死亡事故,2014-10-9 13:19:00,洛场路进场联路西约100米,31.308664877684,121.41745980505
3101186201500060,伤人事故,2015-3-11 8:45:00,沪青平公路进前云路南约200米,31.143295660667,121.13295310661
3101146201500030,死亡事故,2015-3-26 8:43:00,柳湖路树屏路东约1米,31.408710678862,121.2537554763
3101183201500020,死亡事故,2015-2-2 7:20:00,沪青平公路蟠龙路西北约5米,31.187183666873,121.2905527667
3101173201500100,伤人事故,2015-4-16 19:48:00,方塔北路美能达路北约20米,31.02906369895,121.25665687823
3101175201500000,死亡事故,2015-1-5 19:15:00,姚北公路出沪亭南路东约20米,31.110831514626,121.3362593173
3101186201500010,死亡事故,2015-1-24 14:23:00,练西公路进老朱枫公路西约600米,31.055322822518,120.99389830081
3101144201400170,死亡事故,2014-12-11 19:55:00,胜辛南路进宝安公路东约300米,31.313423043537,121.27301746765
3101153201500030,死亡事故,2015-1-22 12:56:00,沪南公路观海路东约1米,31.049810403453,121.78971178646
3101122201500000,死亡事故,2015-1-7 22:30:00,北翟路七莘路东南约12米,31.224837868868,121.33425004862
3101179201500010,伤人事故,2015-1-1 11:33:00,泗凤公路刘五公路东约5米,31.115554022636,121.25624908346
3101151201500070,死亡事故,2015-3-3 14:24:00,顾高公路出陈邵路西约350米,31.308192384749,121.66757635744
3101155201400510,死亡事故,2014-11-17 20:41:00,张杨北路外环高速外侧张杨北路上匝道西约5米,31.263205790853,121.65047185248
3101153201400490,死亡事故,2014-11-6 11:07:00,昌里路洪山路东约1米,31.180001007852,121.50198196516
3101091201400030,死亡事故,2014-10-29 17:00:00,东长治路进高阳路西约100米,31.260766530407,121.50721826253
3101016201400030,死亡事故,2014-11-10 18:10:00,人民路新开河路北约0米,31.235186722891,121.50094882489
3101075201400100,死亡事故,2014-12-26 20:28:00,曹杨路进宁夏路北约50米,31.237262154989,121.42005201651
3101143201500020,死亡事故,2015-2-22 23:50:00,沪宜公路永盛路西约5米,31.361524759857,121.25615848306
3101138201400150,死亡事故,2014-9-21 7:43:00,江杨北路出友谊路南约200米,31.399361183592,121.45074644924
3101179201500010,伤人事故,2015-1-4 1:05:00,上海绕城高速东侧139km约900米,31.249161710015,121.48789948569
3101156201400570,死亡事故,2014-12-19 12:25:00,人民西路进大川公路西约800米,31.054730682455,121.74798353452
3101162201400140,死亡事故,2014-12-30 14:40:00,金石南路进漕廊公路北约1000米,30.752660044154,121.27295656254
3101096201500000,伤人事故,2015-1-18 12:50:00,临平路瑞虹路东约0米,31.267570685699,121.50319991741
3101147201400180,死亡事故,2014-12-27 9:20:00,博乐南路嘉罗公路东约1米,31.380114168538,121.27040753801
3101142201500010,死亡事故,2015-2-7 1:18:00,叶城路出永盛路西约50米,31.361524759857,121.25615848306
3101135201400170,死亡事故,2014-10-12 16:26:00,罗北路进罗溪路东约389米,31.452702651312,121.37245662047
3101157201400550,死亡事故,2014-12-8 21:20:00,外环高速外侧22km约10米,31.249161710015,121.48789948569
3101131201400200,死亡事故,2014-12-7 12:50:00,泰和路进同济路西约20米,31.394903900834,121.49058377078
3101123201400270,伤人事故,2014-10-29 13:35:00,联友路进鸣嘉路北约300米,31.228820585629,121.28711288811
3101124201400260,死亡事故,2014-10-24 10:15:00,沧源路进剑川路南约300米,31.024205802897,121.43355946456
3101178201500020,伤人事故,2015-1-13 11:45:00,昆港公路进平原街南约50米,31.037271176803,121.13668986439
3101121201400310,伤人事故,2014-12-12 8:50:00,春申路出虹梅南路东约200米,31.110216058818,121.42297725588
3103014201400010,伤人事故,2014-9-15 7:20:00,卢浦大桥西侧LDX-048约0米,31.19475602515,121.48774119977
3101174201400150,伤人事故,2014-10-24 17:37:00,广富林东路中创路南约15米,31.057356593791,121.27826706804
3101152201400520,死亡事故,2014-11-22 10:30:00,南六公路朱明连路西约1米,31.102010538869,121.71562004746
3101059201400030,死亡事故,2014-11-25 6:03:00,仙霞西路平塘路东约5米,31.216145760106,121.35474112763
3101153201400530,死亡事故,2014-12-4 6:09:00,高桥江东路出凌海路北约150米,31.344431667714,121.58992812721
3101172201500040,死亡事故,2015-2-12 5:55:00,荣乐西路出玉树路东约500米,31.022583706731,121.20517128933
3101120201400240,死亡事故,2014-10-10 9:40:00,昆阳路剑川路北约200米,31.024839538314,121.37261971502
3101157201400400,死亡事故,2014-9-16 10:48:00,罗山路博山路西北约5米,31.252065326929,121.56871012142
3101168201500000,死亡事故,2015-1-7 7:45:00,松卫南路进漕廊公路南约20米,30.790854977816,121.33518265772
3101140201400180,死亡事故,2014-12-22 6:40:00,沪宜公路进世盛路西约10米,31.408146952905,121.19101715024
3101155201400510,死亡事故,2014-11-20 23:20:00,五洲大道南侧杨高北路上匝道,31.309714037745,121.60654252387
3101154201400430,死亡事故,2014-9-29 10:23:00,新元南路两港大道东约5米,30.894562681727,121.84074112509
3101150201500030,死亡事故,2015-1-24 10:10:00,康桥东路康新公路北约20米,31.161141417554,121.62734908598
3101154201400580,死亡事故,2014-12-25 11:40:00,外环高速外侧13.3km约1米,31.249161710015,121.48789948569
3101139201500050,伤人事故,2015-3-20 22:20:00,沪太路纬地路东约1米,31.288795980563,121.42945269564
3101132201400200,死亡事故,2014-11-19 9:52:00,金石路沪太路路口,31.466660482427,121.35832587326
3101147201500000,死亡事故,2015-1-14 17:30:00,嘉行公路进施钱路南约1000米,31.445409164648,121.25621058209
3101206201400170,死亡事故,2014-11-24 15:40:00,林海公路进上塑路北约100米,30.930233742508,121.57611055265
3101148201400180,死亡事故,2014-12-28 17:36:00,徐曹路开源路东约20米,31.438447141964,121.31150484801
3101133201500040,伤人事故,2015-3-3 15:20:00,铁山路进水产路南约900米,31.249161710015,121.48789948569
3101156201400500,死亡事故,2014-11-10 23:50:00,华夏西路进康杉路西约80米,31.174695361261,121.58122391782
3101139201400190,死亡事故,2014-11-8 18:33:00,其他路洋桥村沈家宅,31.505253972926,121.31858442787
3101141201500010,死亡事故,2015-2-4 14:45:00,沪嘉高速东侧23公里km约800米,31.367353327399,121.48517133186
3101176201500000,死亡事故,2015-1-1 17:38:00,大叶公路出车亭公路东约850米,30.985723321869,121.59655683496
3101179201500020,伤人事故,2015-1-18 12:23:00,松卫北路进塔闵公路北约80米,31.035166099497,121.26878319953
3101154201400450,死亡事故,2014-10-14 0:43:00,上海绕城高速外侧54.6km约10米,31.249161710015,121.48789948569
3101122201400260,死亡事故,2014-10-25 4:57:00,七莘路中谊路西约0米,31.146595183312,121.36378358498
3101156201400530,死亡事故,2014-11-29 15:17:00,金海路顾唐路东约2米,31.276267606886,121.68319812472
3101139201400220,伤人事故,2014-12-29 16:30:00,长江南路进淞塘路东约200米,31.340838176528,121.49074716716
3101138201400220,伤人事故,2014-12-29 20:50:00,淞宝路淞青路西约0米,31.394398927354,121.50998410388
3101145201400180,死亡事故,2014-12-25 16:45:00,宝安公路宝中路东约1米,31.323778353601,121.21585460051
3101171201500010,伤人事故,2015-1-14 0:05:00,南乐路出新车公路西约200米,31.029380186035,121.29708370377
3101132201400230,死亡事故,2014-12-31 5:21:00,金石路潘泾路路口,31.466153227722,121.35604451413
3101182201500020,死亡事故,2015-1-26 10:15:00,华重公路进嘉松中路西约100米,31.225519630827,121.240475746
3101055201400040,死亡事故,2014-12-27 20:06:00,长宁路中山西路南约5米,31.223180712749,121.41793816261
3101072201400090,死亡事故,2014-10-30 20:38:00,交通路进中山北路西约100米,31.265963582008,121.42836544684
3101137201400180,死亡事故,2014-10-24 21:25:00,沪太公路曹新公路路口,31.443473875194,121.34235380187
3101150201500020,死亡事故,2015-1-15 16:42:00,高木桥路进孙环路东约1米,31.188898268293,121.64009642474
3101174201500040,伤人事故,2015-1-24 14:57:00,叶家公路出沪松公路东约100米,31.123308657121,121.29673689946
3101157201400530,死亡事故,2014-11-30 11:40:00,老芦公路出塘北路北约500米,30.908914638838,121.86496866095
3101126201400260,伤人事故,2014-10-26 9:45:00,立跃路万芳路东约10米,31.098369713669,121.53056078511
3101178201400180,死亡事故,2014-11-21 20:15:00,莘松路出场西路东约300米,31.105826381801,121.36516724585
3101205201400110,死亡事故,2014-9-17 11:10:00,平庄东路沿钱公路东约3米,30.912484900777,121.75876769936
3101202201400130,死亡事故,2014-10-4 14:10:00,平庄东路奉柘公路西约200米,30.899957102179,121.61748807828
3101051201400030,死亡事故,2014-10-29 18:09:00,华山路出江苏路南约200米,31.218154699204,121.44425782954
3101131201400200,死亡事故,2014-12-1 14:07:00,外环高速内侧85km约100米,31.249161710015,121.48789948569
3101141201400180,死亡事故,2014-12-24 20:45:00,北大街进温宿路北约500米,31.395837049304,121.25421536291
3101159201400550,死亡事故,2014-12-12 6:12:00,东川公路金海路东南约15米,31.276267606886,121.68319812472
3102303201400150,死亡事故,2014-12-26 6:00:00,团城公路进新申公路东约300米,31.579714291913,121.56120125933
3102301201400110,伤人事故,2014-10-6 19:10:00,陈海公路堡镇北路南约15米,31.568437266314,121.64398064387
3101158201400460,死亡事故,2014-10-18 16:25:00,川南奉公路出下盐路北约400米,31.078977599413,121.75819029193
3101151201400520,死亡事故,2014-11-26 15:42:00,其他路康桥镇锦绣华都小区,31.160928568065,121.58764490859
3101154201500000,死亡事故,2015-1-1 3:05:00,华夏东路出凌空路东约150米,31.209001451073,121.72227386105
3101184201400530,死亡事故,2014-12-13 2:14:00,华青南路出沪青平公路北约300米,31.150281849443,121.14083411422
3101178201500020,伤人事故,2015-1-14 16:58:00,荣乐东路东兴路南约10米,31.034634813828,121.27462601931
3101173201500050,死亡事故,2015-3-16 7:14:00,荣乐东路松卫北路东南约15米,31.035166099497,121.26878319953
3101139201400170,伤人事故,2014-10-19 16:00:00,水产路进同泰北路西约200米,31.385055445178,121.50030920981
3101148201400140,死亡事故,2014-10-31 2:50:00,沈海高速东侧1271.3km约1米,31.249161710015,121.48789948569
3101154201400520,死亡事故,2014-11-21 22:09:00,外环高速内侧14km约700米,31.249161710015,121.48789948569
3101158201500030,死亡事故,2015-1-27 21:00:00,申嘉湖高速南侧27.3km约30米,31.249161710015,121.48789948569
3101122201500000,死亡事故,2015-1-7 21:00:00,沪闵路灯辉路北约50米,31.033381118259,121.41245226117
3101013201400020,伤人事故,2014-9-11 16:05:00,南京东路西藏中路南约0米,31.242866642007,121.49022908383
3101153201400420,死亡事故,2014-9-24 23:10:00,申嘉湖高速南侧22.8km约50米,31.249161710015,121.48789948569
3101135201400190,死亡事故,2014-11-14 11:14:00,新川沙路潘泾路东约1米,31.484403882952,121.35174437775
3101136201400190,死亡事故,2014-11-5 11:36:00,平遥路沪太路东约1米,31.296451835208,121.42796730346
3101173201500020,伤人事故,2015-1-13 18:30:00,广富林东路出中凯路西约100米,31.057356593791,121.27826706804
3101175201400200,伤人事故,2014-12-30 14:50:00,沪松公路广富林路东北约15米,31.066377021386,121.20826036346
3101170201400190,伤人事故,2014-12-9 6:24:00,古楼公路出嘉松南路东约50米,31.111176038808,121.25814314715
3101158201500010,死亡事故,2015-1-6 18:02:00,川沙路进民春路南约400米,31.210252137268,121.70186930324
3101141201400170,死亡事故,2014-12-13 7:55:00,丰华公路丰庄西路西约300米,31.253969555966,121.36258047363
3101081201400040,伤人事故,2014-9-26 5:35:00,共和新路永和路北约1米,31.293375007381,121.44346810132
3101188201500010,死亡事故,2015-1-17 1:55:00,沪渝高速南侧25km约600米,31.249161710015,121.48789948569
3101201201400180,死亡事故,2014-11-30 20:37:00,大叶公路东侧30km约100米,30.985723321869,121.59682632661
3101150201400580,死亡事故,2014-12-24 13:42:00,高科东路齐爱路东约1米,31.231348319577,121.73570263012
3101173201400170,死亡事故,2014-11-8 6:00:00,青昆公路出青天路南约50米,31.249161710015,121.48789948569
3101127201400250,死亡事故,2014-10-19 23:49:00,纪翟路朱建路东南约10米,31.220939783724,121.27453998859
3101073201500000,死亡事故,2015-1-15 0:45:00,真南路水厂路东约0米,31.279773640463,121.36538906623
3101209201400190,死亡事故,2014-12-18 18:20:00,航塘公路进南奉公路南约700米,30.944954826666,121.6117892407
3101185201400520,死亡事故,2014-12-5 5:30:00,白石公路老白石公路南约10米,31.259860443763,121.13619604609
3101153201400560,死亡事故,2014-12-20 10:50:00,老芦公路港北路口,30.908914638838,121.86496866095
3101140201400150,死亡事故,2014-11-8 17:15:00,墨玉路进昌吉路北约150米,31.304528477948,121.16972540345
3101154201400440,死亡事故,2014-10-9 20:09:00,港城路出江泉路东约10米,31.357712231187,121.5555400329
3101163201400120,死亡事故,2014-12-1 9:35:00,亭卫公路红旗东路东约1米,30.769094172909,121.37105786896
3101157201400460,死亡事故,2014-10-19 22:23:00,浦星公路出红临路北约300米,31.123295402972,121.49175408679
3101147201400150,死亡事故,2014-11-4 22:28:00,外环高速外侧75.7km约1米,31.249161710015,121.48789948569
3101129201500050,伤人事故,2015-3-29 22:47:00,漕宝路莲花路西约5米,31.167681815831,121.40039236776
3101132201500020,伤人事故,2015-1-19 8:25:00,沪太公路顾太路路口,31.352144217638,121.39604181669
3101138201400140,死亡事故,2014-8-27 6:32:00,江杨南路呼兰路东约1米,31.350094172768,121.45476314418
3101170201400210,死亡事故,2014-12-15 15:43:00,松卫北路进泖亭路北约10米,31.035166099497,121.26878319953
3101174201400180,死亡事故,2014-12-1 23:34:00,长兴路进沪松公路东约20米,31.087417844386,121.2788269612
3101154201500010,死亡事故,2015-1-8 20:30:00,济阳路进三航路北约500米,31.13704863841,121.48989809149
3101159201500110,死亡事故,2015-4-1 21:55:00,外环高速东侧30km约1米,31.249161710015,121.48789948569
3101127201500010,伤人事故,2015-1-27 22:30:00,景谷路华宁路东约0米,31.02056316021,121.41293276389
3101179201500010,伤人事故,2015-1-13 7:05:00,荣乐东路出方塔北路东约100米,31.022725318421,121.25472819744
3101148201400170,死亡事故,2014-12-15 16:34:00,银翔路槎溪路东约1米,31.295877977302,121.32750696862
3101090201400030,死亡事故,2014-11-22 18:50:00,霍山路大连路南约00米,31.263615506563,121.52249516763
3101189201500010,死亡事故,2015-1-16 14:00:00,沈太路进沈砖公路南约4000米,31.061127969536,121.08176057102
3101129201500000,死亡事故,2015-1-8 7:25:00,虹梅南路进澄江路南约500米,31.106950867134,121.43894086074
3102306201400120,死亡事故,2014-11-1 17:40:00,北沿公路进港沿公路东约1000米,31.249161710015,121.48789948569
3101154201400520,死亡事故,2014-11-23 9:15:00,大治河路进英墩路西约800米,31.01793566948,121.7086249173
3101094201400040,死亡事故,2014-12-13 1:07:00,汶水东路出逸仙路西约100米,31.295504298278,121.48525196287
3101148201400160,死亡事故,2014-12-4 4:10:00,泽普路进墨玉路西约200米,31.297430341004,121.16985284516
3101127201400290,死亡事故,2014-11-24 18:52:00,银春路沪闵路西约600米,31.033274400078,121.40256481364
3101169201400120,死亡事故,2014-12-2 6:29:00,漕廊公路进张溪路东约1米,30.799645533965,121.29061528158
3102302201400120,死亡事故,2014-11-8 7:00:00,其他路港沿镇惠中村,31.615287971635,121.67790601293
3101205201400160,死亡事故,2014-11-5 7:12:00,环城南路通阳路东约1米,30.91009124566,121.46449223302
3101158201500080,死亡事故,2015-3-17 9:08:00,高桥江东路进草高公路西约150米,31.382573902197,121.53142823742
3101176201400190,死亡事故,2014-12-10 13:27:00,沈海高速西侧1314km约47米,31.249161710015,121.48789948569
3101134201400210,财产损失事故,2014-12-26 8:10:00,泰和路同济路路口东侧约200米处,31.379145417305,121.49901328733
3101180201400500,死亡事故,2014-11-20 21:30:00,崧泽大道赵重公路北约5米,31.203830925045,121.19157680985
3101134201400210,死亡事故,2014-12-29 13:58:00,联杨路进长联路南约100米,31.386238492427,121.35550494333
3101148201400150,死亡事故,2014-11-14 6:47:00,恒飞路百安公路西约500米,31.36903871291,121.16448054882
3101157201400530,死亡事故,2014-11-30 22:30:00,世纪大道出商城路东约33米,31.238741691978,121.53003073905
3101149201400170,伤人事故,2014-12-20 17:39:00,宝钱公路嘉唐公路东约500米,31.434417999256,121.21869327018
3101159201400560,死亡事故,2014-12-20 5:50:00,三宣公路进南团公路西约2000米,31.001043202692,121.75721777111
3101131201400190,伤人事故,2014-11-14 7:20:00,宝安公路进菊泉街东约50米,31.367731443598,121.37866130466
3101177201500020,伤人事故,2015-1-11 16:10:00,洞薛路进洞薛路洞西路东约2米,31.249161710015,121.48789948569
3101137201500030,死亡事故,2015-2-7 12:13:00,军工路出淞军路西约300米,31.350854911426,121.51914354935
3101142201400130,死亡事故,2014-9-23 16:55:00,和静路22弄7号门前东西向小路,31.308975873432,121.19403986474
3101179201400190,伤人事故,2014-12-4 5:30:00,易富路进九新公路西约200米,31.11778019385,121.32223817594
3101138201400220,财产损失事故,2014-12-30 9:40:00,沪太公路石太路东约10米,31.447176439003,121.38593617973
3101186201500030,死亡事故,2015-2-5 19:58:00,沈海高速西侧1282km约700米,31.249161710015,121.48789948569
3101155201500060,死亡事故,2015-2-12 9:43:00,康新公路周邓公路东约10米,31.123403447269,121.62385996946
3101153201500040,死亡事故,2015-1-30 13:04:00,华夏中路罗山路东约30米,31.176505681123,121.59433017635
3101200201500020,死亡事故,2015-2-23 13:10:00,团青公路奉村路东约1米,30.947604113482,121.7258778385
3101128201500050,死亡事故,2015-3-30 11:40:00,虹梅南路外环高速东约0米,31.132169062864,121.46288401284
3101129201500040,伤人事故,2015-3-23 6:30:00,立跃路浦秀路北约0米,31.085875497957,121.5002986646
3101101201500000,死亡事故,2015-1-7 17:40:00,中山北二路四平路东约5米,31.292840298282,121.50657464191
3101201201500020,死亡事故,2015-2-15 6:03:00,港文路海杰路东约100米,30.902817674428,121.76130935598
3101155201500140,死亡事故,2015-4-25 11:40:00,高桥江东路出凌江路南约200米,31.344431667714,121.58992812721
3101094201500000,伤人事故,2015-2-28 6:11:00,周家嘴路出通州路东约20米,31.263524542639,121.50247328886
3101155201500070,死亡事故,2015-3-1 19:15:00,花木路出锦绣路东约30米,31.219855940744,121.56814907034
3101151201500040,死亡事故,2015-1-29 22:30:00,南团公路出南芦公路北约500米,31.002490885793,121.76946215401
3101201201500030,死亡事故,2015-3-11 9:20:00,奉柘公路进沪杭公路东约1000米,30.875451217665,121.54923180642
3101123201500010,伤人事故,2015-1-26 13:43:00,立跃路浦秀路西约0米,30.988381308803,121.40710210267
3101134201400150,死亡事故,2014-9-15 6:00:00,泰和路江杨北路东约1米,31.372113849306,121.47542755213
3101156201500110,死亡事故,2015-4-7 8:05:00,沪芦高速南侧60.9km约50米,31.249161710015,121.48789948569
3101179201500110,财产损失事故,2015-4-29 16:39:00,民益路新效路西约2米,31.061110993606,121.30849587758
3101158201500020,死亡事故,2015-1-16 20:43:00,沪芦高速临港服务区北侧加油站,30.922367619517,121.80921384817
3101041201500010,死亡事故,2015-4-12 18:30:00,中山南二路出天钥桥路西约200米,31.199140608715,121.44823768048
3101121201500050,伤人事故,2015-3-23 18:10:00,北青公路进金光路西约800米,31.206904330825,121.28246463948
3101137201500040,伤人事故,2015-2-28 13:00:00,石太路钱陆路东约1米,31.457513718054,121.39382938993
3101175201500070,伤人事故,2015-4-1 19:39:00,泗砖南路进长兴东路南约400米,31.088775122654,121.2977864868
3101132201500030,伤人事故,2015-2-10 14:10:00,祁连山路丰翔路北约0米,31.315858970155,121.35811805836
3101140201500040,死亡事故,2015-4-14 13:30:00,上海绕城高速东侧173km约800米,31.249161710015,121.48789948569
3101153201500090,死亡事故,2015-3-22 18:53:00,高桥江东路出凌高路南约80米,31.344431667714,121.58992812721
3101179201500050,伤人事故,2015-3-1 13:30:00,千新公路出九江公路北约2米,31.106253524142,121.19808221169
3101157201500110,死亡事故,2015-4-1 20:14:00,世纪大道进商城路西约10米,31.238741691978,121.53003073905
3101120201500060,伤人事故,2015-4-22 15:10:00,华翔路进天山西路北约60米,31.224597765116,121.34375812826
3101131201500010,伤人事故,2015-1-15 22:02:00,泉临路长临路东约1米,31.330174835005,121.44385319052
3101157201500120,死亡事故,2015-4-12 11:15:00,南芦公路188弄158号上海成农饲料厂东门口,30.948670602355,121.78910180738
3101086201500010,死亡事故,2015-3-21 13:41:00,长临路共康路东约5米,31.332232125057,121.44118539204
3101176201500100,伤人事故,2015-4-19 21:56:00,九新公路进中心路南约20米,31.088979970326,121.32339013418
3101180201500050,死亡事故,2015-3-1 20:25:00,练西公路进老朱枫公路西约300米,31.055322822518,120.99389830081
3101182201500060,死亡事故,2015-3-12 20:17:00,华青北路天辰路南约10米,31.163992291177,121.13837806431
3101150201500100,死亡事故,2015-3-27 14:35:00,上南路外环高速东约5米,31.132169062864,121.46288401284
3101079201500020,死亡事故,2015-2-28 5:19:00,武宁路大渡河路东南约10米,31.247586855505,121.40312661031
3101090201500010,伤人事故,2015-4-17 22:01:00,海伦西路进四川北路西约100米,31.265596996892,121.48851471717
3101123201500040,伤人事故,2015-3-18 14:16:00,剑川路龙吴路西北约5米,31.024352390538,121.39926457394
3101139201500030,死亡事故,2015-2-7 14:35:00,外环隧道内侧1km约500米,31.382509904733,121.50949592065
3101125201500030,伤人事故,2015-3-14 20:52:00,虹梅南路出莘朱路南约30米,31.120959019181,121.41037832976
3101174201500080,死亡事故,2015-4-3 21:45:00,新松江路出辰塔路西约25米,31.045066673201,121.21317659099
3101141201500020,死亡事故,2015-2-14 16:20:00,思义路浏翔公路西南约5米,31.342150033555,121.32251187974
3101158201500060,死亡事故,2015-2-25 9:25:00,申港大道环湖西三路东约5米,30.903896704317,121.90602777859
3101177201500030,伤人事故,2015-1-23 12:32:00,泖亭路荣福路东南约10米,31.002733014231,121.27708752733
3101088201500010,伤人事故,2015-2-16 19:00:00,中兴路大统路东约3米,31.258632534726,121.47273918694
3101083201400040,伤人事故,2014-12-24 20:05:00,宝山路出西华路北约5米,31.263809171137,121.48416823093
3101134201500090,伤人事故,2015-4-26 11:50:00,罗北路钱陆路东约1米,31.452702651312,121.37245662047
3101176201500060,财产损失事故,2015-3-23 11:45:00,叶新公路张米公路西南约2米,30.955457245712,121.2496689426
3101158201500110,死亡事故,2015-4-6 7:41:00,浦明路出塘桥新路北约200米,31.216702456237,121.52221493584
3101120201500040,伤人事故,2015-3-18 22:06:00,三鲁公路江文路北约100米,31.067642149325,121.5443366199
3101134201500060,伤人事故,2015-4-1 7:15:00,南大路南陈路东约200米,31.30579763068,121.39020577282
3101124201500040,伤人事故,2015-3-20 5:45:00,光中路中春路南约1米,31.078446267646,121.39588519892
3101142201500020,死亡事故,2015-3-6 16:50:00,刘石路进大治路北约300米,31.399526807016,121.3168450434
3101176201500070,伤人事故,2015-3-30 12:32:00,刘五公路古楼公路北约15米,31.115554022636,121.25624908346
3101121201500040,死亡事故,2015-3-18 5:22:00,沪闵路金都路东约00米,31.094783796244,121.42704931787
3103017201500000,财产损失事故,2015-4-28 22:50:00,中环高架外侧ZW0076约0米,31.114777386686,121.29308405958
3101171201500070,伤人事故,2015-3-16 18:34:00,梅家浜路进谷阳北路东约200米,31.057965280092,121.23909341461
3101153201500040,死亡事故,2015-2-3 10:06:00,高科中路芳春路南约1米,31.22356059948,121.64465026415
3101170201500050,伤人事故,2015-3-12 19:20:00,松卫北路塔闵公路西北约5米,31.035166099497,121.26878319953
3101202201400190,死亡事故,2014-12-8 16:30:00,金闸公路南侧1km前约100米,30.996829213284,121.51043055094
3101204201400200,伤人事故,2014-12-20 23:23:00,南奉公路进上海绕城高速内侧奉城上匝道东约100米,30.921263575273,121.64996720421
3101159201500060,死亡事故,2015-2-12 9:20:00,洲海路华东路东约1米,31.322774583562,121.63123874075
3101146201500040,死亡事故,2015-4-6 18:45:00,塔城路梅园路西约150米,31.389337841149,121.24903364837
3101200201400200,死亡事故,2014-12-30 3:45:00,环城西路进西闸公路西约500米,31.146155547968,121.11725349487
3102307201400150,死亡事故,2014-12-25 11:57:00,乔松路出绿海路东约100米,31.630393777499,121.44004645114
3101150201500020,死亡事故,2015-1-14 4:40:00,川桥路出金豫路西约100米,31.25653735408,121.62595224157
3101132201500080,伤人事故,2015-4-16 13:30:00,沪太路朗枫路北约500米,31.336870782445,121.41435126195
3101177201500040,死亡事故,2015-2-8 23:00:00,松蒸公路进彭丰路西约20米,31.021409098208,121.1486164789
3101156201500130,死亡事故,2015-4-22 1:19:00,施新路施湾三路东约1米,31.157945844319,121.76426443347
3101185201500030,死亡事故,2015-2-2 19:20:00,外青松公路崧泽大道北约5米,31.181060549011,121.226133464
3101142201500040,死亡事故,2015-4-2 10:16:00,百安公路进宝钱公路南约500米,31.35853556089,121.18240056337
3101133201400220,财产损失事故,2014-12-29 20:00:00,上海绕城高速内侧208km约500米,31.249161710015,121.48789948569
3101151201500000,死亡事故,2015-1-3 13:41:00,杨高北路秋霞路东约1米,31.341679642152,121.59566996308
3101159201500080,死亡事故,2015-3-11 19:12:00,杨高北路草高支路东约1米,31.357265323914,121.57691927285
3101201201500050,死亡事故,2015-4-15 6:33:00,奉柘公路金海公路东约2米,30.910385515937,121.50486717064
3101132201500030,财产损失事故,2015-2-10 20:30:00,牡丹江路出海江三路北约20米,31.408212726034,121.4897921139
3101155201500150,死亡事故,2015-4-29 15:00:00,张杨北路衡安路东约1米,31.326158605014,121.58953670137
3101077201500020,死亡事故,2015-3-9 1:36:00,岚皋路岚皋西路北约0米,31.253497117672,121.42907444704
3101179201500050,伤人事故,2015-3-5 13:35:00,荣乐西路三新路东约2米,31.01655020327,121.20297824172
3101084201500020,死亡事故,2015-4-13 10:10:00,中山北路出共和新路西约150米,31.294617854291,121.45765266063
3101041201500000,死亡事故,2015-1-28 13:30:00,番禺路秀山路南约5米,31.201502405582,121.43617420014
3101154201500110,死亡事故,2015-4-4 14:15:00,杨高南路进浦建路南约100米,31.213706898362,121.5415230956
3101174201500050,伤人事故,2015-3-11 20:45:00,叶新公路出松金公路东约100米,30.941933114626,121.1922430552
3101137201500040,伤人事故,2015-2-26 7:45:00,真华路出华灵路南约60米,31.284600333315,121.41776765973
3101137201500040,伤人事故,2015-3-2 3:30:00,沪翔高速内侧21km约200米,31.249161710015,121.48789948569
3101137201500010,财产损失事故,2015-1-20 21:45:00,宝杨路进江杨北路(东)西约30米,31.398090908842,121.42034951194
3101147201500020,死亡事故,2015-2-12 23:20:00,浏翔公路丰翔路西约20米,31.315858970155,121.35811805836
3101155201500070,死亡事故,2015-3-1 15:20:00,南六公路进下盐公路北约100米,31.102010538869,121.71562004746
3101124201500050,伤人事故,2015-3-25 6:35:00,申嘉湖高速南侧39.4km约200米,31.249161710015,121.48789948569
3101143201500030,死亡事故,2015-3-15 19:10:00,澄浏中路横仓公路北约1米,31.375089628625,121.31217166019
3101120201500050,死亡事故,2015-3-24 17:16:00,虹梅南路出放鹤路北约30米,31.052909683246,121.45256283646
3101181201500050,死亡事故,2015-3-4 21:15:00,天辰路进久远路西约10米,31.205811688266,121.12066001938
3102309201500040,死亡事故,2015-4-2 18:50:00,北沿公路出港沿公路西约1500米,31.249161710015,121.48789948569
3101133201500050,伤人事故,2015-3-3 16:54:00,宝杨路海江一路东约1米,31.395343023417,121.47302403872
3101154201500130,死亡事故,2015-4-19 14:21:00,民雷路出秦家港路南约20米,31.267373353843,121.67187604736
3101179201500070,伤人事故,2015-3-20 18:30:00,闵申路进茜浦路东约50米,31.05630076603,121.33027950503
3101041201500000,死亡事故,2015-1-7 21:08:00,中山南二路出兆丰路东约5米,31.197430760982,121.47472301202
3101156201500020,死亡事故,2015-1-13 19:25:00,周祝公路出周园路东约500米,31.129968222529,121.5978608332
3101131201500070,死亡事故,2015-4-7 18:47:00,真金路武威东路东约1米,31.282709479062,121.41300215439
3101130201400200,死亡事故,2014-11-18 15:34:00,其他路共富一村,31.356891269541,121.43764509097
3101157201400590,死亡事故,2014-12-30 19:15:00,施湾二路施新路东约1米,31.153250989437,121.75277086959
3101087201500020,伤人事故,2015-4-27 8:49:00,海宁路出乌镇路东约20米,31.253833913881,121.48892741938
3101155201500070,死亡事故,2015-3-3 22:30:00,陆家嘴东路进陆家嘴环路西约100米,31.242120663502,121.51461396419
3101179201500090,财产损失事故,2015-4-15 13:00:00,香闵路香车路南约10米,31.010952048358,121.30012624837
3101146201500020,死亡事故,2015-3-11 11:05:00,上海绕城高速北侧173km约10米,31.249161710015,121.48789948569
3101200201400200,死亡事故,2014-12-29 14:14:00,航南公路沪杭公路东约1米,30.993432279029,121.5700979154
3102306201500020,死亡事故,2015-3-5 9:50:00,北沿公路新海北路东约500米,31.8236758984,121.30412814641
3101139201400210,死亡事故,2014-12-26 12:53:00,沪太公路进曹新公路南约600米,31.42179094487,121.34287028711
3101126201500020,伤人事故,2015-2-7 13:04:00,宝南路进七莘路东约300米,31.157643683796,121.36605285651
3101012201500010,伤人事故,2015-4-19 23:13:00,斜土路出制造局路西约150米,31.210482481042,121.49096883123
3101173201500110,伤人事故,2015-4-27 17:50:00,人民北路进梅家浜路南约100米,31.063420464936,121.2279521428
3101162201500020,死亡事故,2015-3-22 16:10:00,松金公路进金张公路南约1米,30.929048650339,121.24163640612
3101073201500000,死亡事故,2015-1-17 13:21:00,桃浦路大渡河路东约50米,31.265527736622,121.39595273712
3101146201500030,死亡事故,2015-3-15 18:10:00,北周路进外钱公路(西)西约300米,31.407275947492,121.33785498277
3101134201500060,死亡事故,2015-4-2 9:00:00,汶水路真北路东约1米,31.296318969488,121.44176936159
3101099201500000,伤人事故,2015-1-29 21:23:00,纪念路逸仙路南约00米,31.303601010674,121.49455817888
3101208201500010,死亡事故,2015-1-22 20:20:00,奉柘公路进沿钱路西约500米,30.875451217665,121.54923180642
3101174201400200,伤人事故,2014-12-24 11:13:00,车阳路香泾路东南约5米,30.992536145533,121.28915447422
3101124201500020,死亡事故,2015-2-4 12:43:00,申嘉湖高速南侧34km约50米,31.249161710015,121.48789948569
3101153201500070,死亡事故,2015-3-8 17:50:00,陈行公路进上南路南约500米,31.101384746455,121.51394110641
3101135201500090,死亡事故,2015-4-26 10:45:00,刘场路出共康路北约300米,31.322658504261,121.43722774542
3101171201500100,伤人事故,2015-4-18 20:57:00,刘五公路进古楼公路北约100米,31.111878397037,121.27407526371
3101145201500040,伤人事故,2015-4-3 19:30:00,胜竹路进城北路西约200米,31.408599279519,121.26260411974
3101175201500090,死亡事故,2015-4-11 21:00:00,沈海高速西侧1317km约600米,31.249161710015,121.48789948569
3101129201500040,伤人事故,2015-3-22 18:45:00,吴中路古北路东北约0米,31.204761003361,121.40496275216
3101129201500020,伤人事故,2015-1-29 20:51:00,沪青平公路航新路东南约15米,31.176963359411,121.35387816235
3101131201500070,死亡事故,2015-4-7 20:15:00,友谊路进铁峰路西约50米,31.375108008769,121.47675163559
3101172201500080,死亡事故,2015-4-1 8:33:00,松卫北路进北松公路北约250米,31.035166099497,121.26878319953
3101159201500060,死亡事故,2015-2-15 4:45:00,大川公路进拱乐路北约200米,31.072753125437,121.74181840003
3101184201500060,死亡事故,2015-3-17 18:07:00,白石公路进程鹤路西约200米,31.26325941637,121.10836464327
3101158201500110,死亡事故,2015-4-4 21:35:00,蓝天路进红枫路西约200米,31.246176942578,121.58516477062
3101134201500030,死亡事故,2015-2-10 8:42:00,泰和路铁山路路口,31.371452615867,121.47337810674
3101136201500010,死亡事故,2015-1-20 18:46:00,逸仙路安达路南约1米,31.367968103342,121.49905192165
3101139201500020,伤人事故,2015-2-4 10:35:00,真陈路城银路路口,31.318649390098,121.35853273325
3101065201500020,死亡事故,2015-1-30 15:25:00,巨鹿路富民路东约3米,31.225275838196,121.45771843726
3101129201500020,死亡事故,2015-2-16 20:51:00,外环高速西侧67km约10米,31.249161710015,121.48789948569
3101156201500110,死亡事故,2015-3-31 16:10:00,东川公路金海路东约1米,31.276267606886,121.68319812472
3101171201500060,死亡事故,2015-3-25 17:40:00,莘砖公路同乐路东约10米,31.091616395368,121.27659665816
3101138201500060,死亡事故,2015-3-31 14:02:00,盘古路铁力路路口,31.406802175357,121.46795240074
3101157201500050,死亡事故,2015-2-9 21:17:00,三三公路出滨果公路东约400米,30.994702140035,121.90057961586
3101089201500000,伤人事故,2015-1-14 14:59:00,浙江北路天潼路北约5米,31.249750179196,121.48262354699
3101186201500070,伤人事故,2015-3-22 14:10:00,崧泽大道嘉松中路东约5米,31.181060549011,121.226133464
3101126201500050,伤人事故,2015-4-2 17:05:00,龙茗路出平阳路南约80米,30.975858070672,121.23248012987
3101177201500090,伤人事故,2015-4-13 20:54:00,莘砖公路高技路西约15米,31.099250839984,121.31075865886
3101135201500060,死亡事故,2015-3-31 14:24:00,石太路进沪太路东约200米,31.447176439003,121.38593617973
3101099201500000,伤人事故,2015-1-30 21:30:00,四平路进吴淞路北约150米,31.255935182248,121.4957981522
3101159201500140,死亡事故,2015-4-26 18:35:00,张杨路德平路东约1米,31.254532542561,121.5694590504
3101125201500070,伤人事故,2015-4-28 22:05:00,华翔路进天山西路北约100米,31.224597765116,121.34375812826
3101204201500030,死亡事故,2015-3-25 7:25:00,奉柘公路星火公路东约1米,30.87144028204,121.56217843247
3101148201500030,死亡事故,2015-3-12 18:22:00,曹安公路出米泉路西约200米,31.303165918847,121.18236335106
3101133201500050,伤人事故,2015-3-13 20:14:00,沪太路月罗路东约1米,31.423395574324,121.37825766366
3101133201500070,伤人事故,2015-4-3 8:10:00,淞滨支路淞滨路北约200米,31.374843902914,121.49411468545
3101083201500000,伤人事故,2015-1-5 5:42:00,三泉路出保德路北约300米,31.327694038668,121.44709709119
3101177201500070,死亡事故,2015-3-29 8:32:00,叶新公路思源路西约20米,30.959955107137,121.32071081672
3101154201500030,死亡事故,2015-1-24 21:59:00,华东路进龙东大道南约5米,31.242158023862,121.67837296291
3101151201500050,死亡事故,2015-2-6 18:58:00,凌白公路庆利路东约1米,31.232168335129,121.7651819681
3101188201500050,死亡事故,2015-2-20 16:50:00,老朱枫公路顾林路东北约18米,31.03875174591,121.01779076333
3101123201500040,伤人事故,2015-3-16 14:05:00,虹梅路出宜山路南约55米,31.164838239581,121.41081125732
3101155201500010,死亡事故,2015-1-5 5:46:00,南芦公路东大公路南约1米,30.987440335438,121.82973525037
3101151201500120,死亡事故,2015-4-9 7:46:00,宣黄公路进川南奉公路西约100米,31.030670902695,121.7426961047
3101127201500050,伤人事故,2015-3-24 20:16:00,沪闵路新苗路北约5米,31.045943453532,121.41532888694
3102306201500020,死亡事故,2015-2-26 8:30:00,汲浜公路出永北路北约5米,31.583874353291,121.79231510547
3101150201500060,死亡事故,2015-2-15 4:20:00,南芦公路出东大公路北约800米,30.987440335438,121.82973525037
3101175201500060,伤人事故,2015-3-10 19:10:00,沈砖公路青天路南约5米,31.097799089858,121.26621870618
3101204201400190,死亡事故,2014-12-13 8:13:00,沿钱公路东侧2km约500米,30.937255157441,121.56093942303
3101122201500060,死亡事故,2015-4-23 8:52:00,莘松路进沪闵公路西约60米,31.105826381801,121.36516724585
3101206201500050,死亡事故,2015-4-18 2:50:00,沿钱公路金大公路北约100米,30.937255157441,121.56092145692
3101139201500040,死亡事故,2015-2-13 7:38:00,真陈路丰翔路东约1米,31.307286823324,121.35320805878
3101122201500030,死亡事故,2015-3-9 8:08:00,剑川路沪闵路南约1米,31.024352390538,121.39926457394
3101105201500000,死亡事故,2015-1-25 22:05:00,双阳路出控江路南约200米,31.287692138235,121.53840298143
3101017201500000,死亡事故,2015-3-13 20:25:00,打浦路隧道通耀路北约5米,31.181324864607,121.48642770105
3101153201500050,死亡事故,2015-2-7 11:12:00,高桥江东路港城路北约1米,31.344431667714,121.58992812721
3101099201500000,死亡事故,2015-2-2 6:00:00,大连路进长阳路南约50米,31.271454724523,121.5131922475
3101152201500080,死亡事故,2015-3-10 10:17:00,张杨北路五莲路东约1米,31.268540389818,121.59246422457
3101173201500030,伤人事故,2015-1-17 17:16:00,沪松公路卖新公路西约5米,31.071211306074,121.29146088081
3101121201500060,伤人事故,2015-4-15 17:58:00,颛兴东路都会路东约1米,31.079559304773,121.42181747609
3101189201500080,死亡事故,2015-4-2 6:08:00,崧泽大道出崧盈路东约600米,31.181060549011,121.226133464
3101171201500060,伤人事故,2015-3-16 19:12:00,沧泾路出九泾路东约250米,31.153679452947,121.2907700174
3101171201500040,死亡事故,2015-2-1 19:30:00,莘砖公路出泗砖公路东约20米,31.112342662368,121.29056778367
3101120201500060,死亡事故,2015-4-20 9:46:00,浦星公路竹园路东约0米,31.076175498037,121.5213078952
3101176201500050,伤人事故,2015-3-5 17:21:00,平阳河路进同乐路东约300米,31.130547457234,121.4259795465
3101174201500060,伤人事故,2015-3-20 7:44:00,泗凤公路进刘五公路东约200米,31.115554022636,121.25624908346
3101156201500070,死亡事故,2015-3-8 8:45:00,金海路出金穗路西约70米,31.270117795852,121.6414223605
3101124201500070,伤人事故,2015-4-28 6:38:00,陈行公路万芳路西约300米,31.090112239483,121.54185811595
3101139201400180,死亡事故,2014-10-27 14:33:00,牡丹江路宝杨路东约1米,31.408212726034,121.4897921139
3101157201500030,死亡事故,2015-1-24 6:50:00,上南路进凌兆路南约10米,31.14907439781,121.50608955154
3101175201500080,伤人事故,2015-3-30 0:15:00,同乐北路出长浜路北约150米,31.279700021945,121.52808727035
3101171201500090,伤人事故,2015-4-15 8:59:00,泗砖路长施公路东约5米,31.101728570268,121.29100122237
3101124201500070,伤人事故,2015-4-27 8:02:00,文井路进东川路北约500米,31.005644202424,121.38951870385
3101138201500050,伤人事故,2015-3-12 19:10:00,沪太公路金石路东约1米,31.42179094487,121.34287028711
3101048201500010,伤人事故,2015-3-26 5:01:00,虹梅路顾戴路(西)东南约10米,31.164838239581,121.41081125732
3101177201500050,伤人事故,2015-3-2 17:27:00,泖亭路华长路西约3米,31.001856825461,121.30085746995
3101138201500080,死亡事故,2015-4-10 21:00:00,祁连山路进锦秋路东约500米,31.323273254063,121.38053687045
3101135201500030,伤人事故,2015-2-5 21:00:00,四元路进宝泉路东约150米,31.419788997084,121.43615962963
3101010201500000,死亡事故,2015-1-11 17:23:00,金陵中路嵩山路西约0米,31.231127569102,121.48340144992
3101142201500030,死亡事故,2015-3-17 10:29:00,博园路钱家村路西约3米,31.268776681103,121.22284618595
3101134201500070,死亡事故,2015-4-4 10:30:00,友谊路出克山路西约200米,31.409546224187,121.47267338337
3101172201500000,伤人事故,2015-1-5 21:00:00,竹亭路进山房公路北约5米,30.953577648841,121.27857453915
3101157201500090,死亡事故,2015-3-21 21:37:00,莱阳路出衡安路北约100米,31.326158605014,121.58953670137
3101130201500030,财产损失事故,2015-2-9 5:36:00,同济路出宝杨路南约100米,31.394903900834,121.49058377078
3101152201500020,死亡事故,2015-1-14 7:08:00,张杨北路江东支路(北)南约20米,31.337690362703,121.59505392852
3101154201500010,死亡事故,2015-1-9 20:38:00,川南奉公路进航城路南约100米,31.137520436847,121.67666715351
3101149201500020,伤人事故,2015-2-14 13:50:00,鹤望路出金运路东约200米,31.251438988322,121.33043230141
3102306201500020,死亡事故,2015-2-26 18:47:00,潘圆公路出大兴路东约500米,31.387503458902,121.758624116
3101086201500010,伤人事故,2015-1-27 23:35:00,天目中路大统路东约5米,31.25107318478,121.47441343797
3101138201400210,死亡事故,2014-12-14 20:17:00,泰和路铁山路南约3米,31.3865431053,121.46576970251
3101202201500020,死亡事故,2015-2-27 7:30:00,浦星公路东侧30km约50米,30.989054381003,121.52241146173
3101154201500000,死亡事故,2015-1-1 10:13:00,沪南公路六奉公路南约3米,31.031538919419,121.70405847466
3101129201500070,伤人事故,2015-4-23 16:52:00,昆阳路出剑川路北约100米,31.024839538314,121.37261971502
3101173201500070,死亡事故,2015-3-27 20:32:00,叶家公路进沪松公路东约500米,31.123308657121,121.29673689946
3101152201500060,死亡事故,2015-2-18 19:00:00,其他路航头镇海桥村,31.01485177971,121.61732267238
3101044201500010,伤人事故,2015-4-16 12:01:00,漕宝路虹漕南路东南约10米,31.160927265036,121.42071567474
3101205201500030,死亡事故,2015-3-12 18:50:00,沪杭公路进新北路北约200米,30.871172833019,121.46786843433
3101086201500010,伤人事故,2015-3-17 15:26:00,共和新路中山北路北约5米,31.294617854291,121.45765266063
3101081201500010,死亡事故,2015-4-12 2:14:00,共和新路出永和路南约100米,31.294617854291,121.45765266063
3101096201400040,死亡事故,2014-12-19 5:30:00,四平路出密云路北约200米,31.285097908063,121.50291536118
3101179201500030,财产损失事故,2015-1-19 7:30:00,荣乐东路进联阳路西约20米,31.035509462249,121.28367861224
3102307201500010,死亡事故,2015-2-5 15:00:00,向化公路进陈海公路南约200米,31.530036192186,121.7687618
3101155201500060,死亡事故,2015-2-28 9:57:00,浦东大道进团林路西约25米,31.269273121666,121.5766062565
3101203201400200,死亡事故,2014-12-19 20:11:00,观工路进南海公路南约200米,30.847363853184,121.49478721624
3101133201500050,死亡事故,2015-3-8 9:00:00,军工路淞军路路口,31.352688986339,121.52020027732
3101175201500040,死亡事故,2015-1-28 23:40:00,玉树路进闵塔公路北约200米,30.985215297777,121.17504370355
3101179201500080,死亡事故,2015-4-6 18:18:00,人民北路出南期昌路南约10米,31.063420464936,121.2279521428
3101170201500080,死亡事故,2015-4-6 19:15:00,叶新公路进范家公路西约1200米,30.953060712131,121.19734455015
3101184201500000,死亡事故,2015-1-10 7:42:00,锦商公路出商前路北约1000米,31.13008092183,120.92708864758
3101179201500070,伤人事故,2015-3-31 11:40:00,荣乐东路进方塔北路东约200米,31.022725318421,121.25472819744
3101013201500010,死亡事故,2015-3-28 18:13:00,复兴中路进茂名南路东约100米,31.22086188007,121.47123808699
3101175201500090,伤人事故,2015-4-16 9:35:00,人民北路出新松江路南约150米,31.047123502082,121.21805648745
3101070201500010,死亡事故,2015-1-26 16:20:00,新村路大华路南约0米,31.270954510042,121.42982474234
3102307201500030,死亡事故,2015-3-25 17:00:00,北沿公路出汲浜公路北约5米,31.584793090605,121.7700975758
3101121201500040,伤人事故,2015-3-18 8:23:00,宁虹路出申昆路西约150米,31.216426252442,121.32602612636
3101209201500020,死亡事故,2015-3-8 18:05:00,川南奉公路东侧48km约200米,30.986106921243,121.77711726923
3101151201500050,死亡事故,2015-2-11 18:20:00,五洲大道东侧五洲大道南侧杨高北路下匝道前约800米,31.309714037745,121.60658743915
3101156201500030,死亡事故,2015-1-22 19:09:00,其他路仓房村,31.822783466098,121.28479023926
3101169201500020,死亡事故,2015-3-12 6:20:00,金廊公路进朱吕公路南约200米,30.838449350166,121.22819368906
3101184201500080,死亡事故,2015-3-28 11:55:00,朱枫公路进康业路北约10米,31.102912914018,121.05952220156
3102213201500000,伤人事故,2015-3-27 11:11:00,港建路越海路口,31.327804532322,121.65985163343
3101124201500050,伤人事故,2015-3-31 7:07:00,北青公路华翔路西南约15米,31.207424482076,121.31044805805
3101143201500000,死亡事故,2015-1-12 10:59:00,胜辛路洪德路东约2米,31.35864746533,121.25590853405
3101135201500010,死亡事故,2015-1-20 19:04:00,月罗公路富乐支路东约1米,31.42467244139,121.42050256793
3101173201500050,伤人事故,2015-3-7 13:24:00,明中路出新育路东约300米,31.082162724642,121.34084795617
3101154201500040,死亡事故,2015-1-30 4:55:00,外环高速东侧28.5km约10米,31.249161710015,121.48789948569
3101083201500010,死亡事故,2015-3-15 20:25:00,粤秀路出彭江路北约200米,31.297320831467,121.46733787533
3101096201500010,伤人事故,2015-4-17 9:20:00,周家嘴路新建路南约0米,31.254968048565,121.50688400485
3101203201500000,死亡事故,2015-1-14 11:15:00,大叶公路东侧31km约200米,30.985723321869,121.59683530967
3101085201500010,伤人事故,2015-2-8 9:28:00,中兴路进恒丰北路西约100米,31.260904617386,121.45848017518
3101153201500090,死亡事故,2015-3-20 16:20:00,莱阳路出沪东路南约15米,31.276308841435,121.58768864798
3101209201500000,死亡事故,2015-1-22 15:05:00,南亭公路进浦卫公路西约500米,30.89875196109,121.36828035414
3101134201500050,伤人事故,2015-3-12 13:57:00,锦秋路出祁连山路东约800米,31.323273254063,121.38053687045
3101149201500020,死亡事故,2015-3-12 6:42:00,靖远路临洮路南约5米,31.260576114985,121.33739750182
3101173201500070,伤人事故,2015-3-29 10:17:00,泗砖路进沪松公路南约40米,31.101728570268,121.29100122237
3101146201500040,死亡事故,2015-4-6 0:25:00,外环高速外侧77Km+400M处,31.249161710015,121.48789948569
3101203201500000,死亡事故,2015-1-5 19:51:00,金钱公路进平庄西路北约800米,30.935474397402,121.51708965824
3101174201500070,伤人事故,2015-3-26 16:26:00,明华路进明中路南约100米,30.823374428181,121.38405393145
3101135201500050,伤人事故,2015-3-20 10:55:00,水产路进铁力路西约50米,31.40031026475,121.47199525793
3101137201500020,伤人事故,2015-1-14 7:30:00,宝安公路沪太公路路口,31.36514667558,121.38298941068
3101164201500010,死亡事故,2015-1-28 18:00:00,亭枫公路进松卫南路东约1000米,30.896538347912,121.16588823398
3101076201500010,死亡事故,2015-1-29 5:50:00,交通路进志丹路西约130米,31.272995477177,121.43652194319
3101134201500060,死亡事故,2015-3-28 22:03:00,友谊路1869弄,31.249161710015,121.48789948569
3101174201500100,伤人事故,2015-4-10 10:13:00,北松公路汇北公路西北约5米,31.016856420109,121.34022533613
3101045201500000,伤人事故,2015-2-4 0:40:00,衡山路进乌鲁木齐南路西约150米,31.211055603849,121.45533098914
3101129201500040,伤人事故,2015-3-18 0:40:00,闸航路出召泰路西约20米,31.025789290729,121.5354254526
3101176201500060,伤人事故,2015-3-11 19:28:00,泗陈公路出沪松公路西约1000米,31.120546435476,121.24235651656
3101171201500100,死亡事故,2015-4-27 19:11:00,新车公路新加路南约5米,31.038303092251,121.31642797632
3101203201400210,死亡事故,2014-12-31 15:50:00,秀南路南中路东约5米,30.916548502369,121.45314356582
3101135201500020,伤人事故,2015-1-13 19:28:00,宝安公路联杨路东约300米,31.38416979434,121.3446881206
3101135201500010,死亡事故,2015-1-14 7:04:00,月罗公路段泾路路口,31.422546166588,121.40903779025
3101175201500070,伤人事故,2015-3-28 11:10:00,沪松公路江川路东南约12米,31.00164166744,121.38502094296
3101120201500070,死亡事故,2015-4-28 8:10:00,吴中路进新镇路西约100米,31.180662725161,121.38468442155
3101176201500030,死亡事故,2015-1-24 6:00:00,沈海高速西侧1299km约100米,31.249161710015,121.48789948569
3102232201500000,死亡事故,2015-2-4 14:30:00,日樱南路进德堡路南约300米,31.317803459451,121.62570643734
3101127201500030,死亡事故,2015-2-27 18:01:00,朱梅路进虹梅南路东约800米,31.128294313059,121.4394186362
3101179201500060,伤人事故,2015-3-14 14:38:00,振业路进张泾路西约80米,31.094240014519,121.28343796159
3101203201500040,死亡事故,2015-4-7 9:00:00,上海绕城高速东侧88km约500米,31.249161710015,121.48789948569
3101179201500090,死亡事故,2015-4-9 1:50:00,林荫新路出林绿路西约800米,31.105308290756,121.22865920445
3101170201500040,死亡事故,2015-1-30 10:21:00,松汇西路玉树路西北约10米,31.00866975146,121.21025464032
3101071201500030,死亡事故,2015-4-1 18:58:00,高陵路铜川路西南约0米,31.263454120217,121.39071355888
3101172201500060,伤人事故,2015-3-11 5:35:00,车亭公路进引水公路南约100米,30.966879506562,121.32341834726
3101184201500100,死亡事故,2015-4-20 1:00:00,前云路进徐南路南约800米,31.1533678379,121.27486717751
3101080201500020,伤人事故,2015-4-15 6:13:00,共和新路进汶水路南约5米,31.294617854291,121.45765266063
3101134201500090,死亡事故,2015-4-22 8:45:00,杨北路进杨宗支路东约150米,31.396822551898,121.42312739327
3101174201500100,死亡事故,2015-4-22 5:29:00,九新公路进明中路北约100米,31.082162724642,121.34084795617
3101134201500070,死亡事故,2015-4-4 21:37:00,月罗公路出锦乐路西约300米,31.412521910068,121.42210330792
3101149201500050,死亡事故,2015-4-28 14:44:00,靖远路临洮路南约1米,31.260576114985,121.33739750182
3101137201500090,死亡事故,2015-4-19 4:20:00,顾北路进潘泾路西约300米,31.35857774074,121.40243290376
3101155201500140,死亡事故,2015-4-27 12:30:00,其他路老港镇二灶港路日新13组,31.066038573362,121.81949092853
3101130201500070,伤人事故,2015-4-5 9:15:00,罗北路沪太公路东约1米,31.452702651312,121.37245662047
3101103201500010,死亡事故,2015-3-16 8:05:00,国伟路出闸殷路东约200米,31.337649134072,121.53946642065
3101139201500080,死亡事故,2015-4-13 23:26:00,富锦路江杨北路南约5米,31.396027814705,121.39507487255
3101047201500020,财产损失事故,2015-4-30 11:02:00,康健路习勤路东约5米,31.17186266638,121.43458478688
3101151201500040,死亡事故,2015-1-29 12:30:00,迎宾高速西侧迎宾高速北侧唐黄上匝道前约2米,31.249161710015,121.48789948569
3101158201500140,死亡事故,2015-4-27 23:11:00,金海路出川沙路西约50米,31.276267606886,121.68319812472
3101156201500150,死亡事故,2015-4-30 15:43:00,川展路南六公路东约1米,31.166288309823,121.69863826091
3101129201500060,伤人事故,2015-4-13 7:37:00,莲花南路金都路北约5米,31.094783796244,121.42704931787
3101173201500090,伤人事故,2015-4-15 11:40:00,大叶公路进济众路东约10米,30.985723321869,121.59655683496
3101012201500010,死亡事故,2015-4-24 22:07:00,西藏南路大林路东约0米,31.218263740481,121.49175858011
3101049201500020,伤人事故,2015-4-24 11:11:00,龙吴路出景联路(西)北约200米,31.106158240385,121.44619318565
3101155201500120,死亡事故,2015-4-9 23:31:00,成山路华鹏路西北约3米,31.181860759069,121.53205319754
3101010201500010,死亡事故,2015-3-30 9:50:00,金陵东路出广西南路西约30米,31.234278139864,121.4875198537
3101158201500040,死亡事故,2015-2-2 19:50:00,台儿庄路出长岛路南约200米,31.266252466283,121.59846922948
3101139201500010,死亡事故,2015-1-28 18:44:00,月罗公路进罗东路西约100米,31.43738992297,121.3793596815
3101186201500100,死亡事故,2015-4-13 21:23:00,华青路进新达路南约20米,31.17364008774,121.13560910046
3101137201500080,伤人事故,2015-4-13 19:15:00,市一东路进潘泾路西约250米,31.424879902706,121.36495303322
3101169201500030,死亡事故,2015-4-9 0:01:00,金山大道进杭州湾大道东约1米,30.737125900523,121.35845997679
3101139201500070,伤人事故,2015-4-3 6:50:00,富锦路潘泾路东约1米,31.401645087597,121.3890589987
3101138201500100,伤人事故,2015-4-28 10:09:00,沪太支路进守仁桥街西约300米,31.298858109633,121.43037814435
3102300201500040,死亡事故,2015-4-13 12:15:00,草港公路出永前二号路西约20米,31.622725551125,121.57746468084
3101175201500080,伤人事故,2015-4-8 18:55:00,塔闵公路出松卫北路西约300米,31.035166099497,121.26878319953
3101079201500040,死亡事故,2015-4-19 19:05:00,延长西路进宜川路东约60米,31.266157973022,121.4406009383
3101139201500090,死亡事故,2015-4-21 16:35:00,铁山路进铁通路南约300米,31.3865431053,121.46576970251
3101155201500130,死亡事故,2015-4-15 19:13:00,洲海路华东路西南约3米,31.322774583562,121.63123874075
3101019201500010,伤人事故,2015-4-25 17:58:00,复兴中路陕西南路西约0米,31.22086188007,121.47123808699
3101097201500020,死亡事故,2015-4-25 7:20:00,长阳路出舟山路东约5米,31.263537642462,121.51159247947
3101153201500110,死亡事故,2015-4-8 10:58:00,杨高北路港城路东约1米,31.357712231187,121.5555400329
3101171201500100,伤人事故,2015-4-11 23:57:00,泗砖路进长施公路南约150米,31.101728570268,121.29100122237
3101155201500150,死亡事故,2015-4-29 19:31:00,浦明路商城路东北约5米,31.222625108725,121.52085413504
3101151201500080,死亡事故,2015-3-13 21:24:00,高科西路出杨高南路北约200米,31.19354495918,121.5311245356
3101184201500090,死亡事故,2015-4-6 15:32:00,白石公路进新胜路西约600米,31.26325941637,121.10836464327
3101017201500010,死亡事故,2015-4-18 21:07:00,鲁班路出南塘浜路南约250米,31.209906437164,121.48155835698
